{
"type": "FeatureCollection",
"features": [
{ "type": "Feature", "properties": { "id": "16030", "lat": 51.324263140600003, "lng": 12.2744415852, "artdtsch": "Zerr-Eiche", "artbot": "Quercus cerris", "gattungdeutsch": "Quercus", "strname": "Kiewer Straße", "pflanzjahr": 2020, "standalter": 4, "bezirk": "Grünau-Nord", "standortnr": "47552", "wassermenge": 100, "wassersumme": 300, "anzahlg": 3 }, "geometry": { "type": "Point", "coordinates": [ 12.2744415852, 51.324263140600003 ] } },
{ "type": "Feature", "properties": { "id": "82131", "lat": 51.306990333100003, "lng": 12.2928784341, "artdtsch": "Eberesche", "artbot": "Sorbus aucuparia", "gattungdeutsch": "Sorbus", "strname": "WG Neubauernsiedlung-Grünverbindung zwischen Rapsweg und Neubauernstraße (3.BA)", "pflanzjahr": 2012, "standalter": 12, "bezirk": "Großzschocher", "standortnr": "G25823", "wassermenge": 70, "wassersumme": 270, "anzahlg": 5 }, "geometry": { "type": "Point", "coordinates": [ 12.2928784341, 51.306990333100003 ] } },
{ "type": "Feature", "properties": { "id": "id-60283", "lat": 51.327484562199999, "lng": 12.2780383124, "artdtsch": "Stiel-Eiche", "artbot": "Quercus robur", "gattungdeutsch": "Quercus", "strname": "Lyoner Straße", "pflanzjahr": 2019, "standalter": 5, "bezirk": "Schönau", "standortnr": "76341", "wassermenge": 100, "wassersumme": 400, "anzahlg": 4 }, "geometry": { "type": "Point", "coordinates": [ 12.2780383124, 51.327484562199999 ] } },
{ "type": "Feature", "properties": { "id": "5337", "lat": 51.307172625900002, "lng": 12.2945628716, "artdtsch": "Stadt-Linde", "artbot": "Tilia cordata 'Greenspire'", "gattungdeutsch": "Tilia", "strname": "Rapsweg", "pflanzjahr": 2022, "standalter": 2, "bezirk": "Großzschocher", "standortnr": "118826", "wassermenge": 150, "wassersumme": 150, "anzahlg": 1 }, "geometry": { "type": "Point", "coordinates": [ 12.2945628716, 51.307172625900002 ] } },
{ "type": "Feature", "properties": { "id": "15806", "lat": 51.319465451399999, "lng": 12.2842833889, "artdtsch": "Stiel-Eiche", "artbot": "Quercus robur", "gattungdeutsch": "Quercus", "strname": "Heilbronner Straße", "pflanzjahr": 2023, "standalter": 1, "bezirk": "Grünau-Mitte", "standortnr": "125970", "wassermenge": 100, "wassersumme": 300, "anzahlg": 3 }, "geometry": { "type": "Point", "coordinates": [ 12.2842833889, 51.319465451399999 ] } },
{ "type": "Feature", "properties": { "id": "id-8970", "lat": 51.3272755745, "lng": 12.3456710325, "artdtsch": "Hopfenbuche", "artbot": "Ostrya carpinifolia", "gattungdeutsch": "Ostrya", "strname": "Könneritzstraße", "pflanzjahr": 2016, "standalter": 8, "bezirk": "Schleußig", "standortnr": "39570", "wassermenge": 30, "wassersumme": 30, "anzahlg": 1 }, "geometry": { "type": "Point", "coordinates": [ 12.3456710325, 51.3272755745 ] } },
{ "type": "Feature", "properties": { "id": "97038", "lat": 51.325387005899998, "lng": 12.2898145986, "artdtsch": "Stiel-Eiche", "artbot": "Quercus robur", "gattungdeutsch": "Quercus", "strname": "WG Grünau WK 5.1-Garskestraße/Lützner Straße/Schönauer Straße", "pflanzjahr": 2020, "standalter": 4, "bezirk": "Schönau", "standortnr": "68683", "wassermenge": 100, "wassersumme": 100, "anzahlg": 1 }, "geometry": { "type": "Point", "coordinates": [ 12.2898145986, 51.325387005899998 ] } },
{ "type": "Feature", "properties": { "id": "id-56530", "lat": 51.343911073699999, "lng": 12.3747212723, "artdtsch": "Stadt-Linde", "artbot": "Tilia cordata 'Greenspire'", "gattungdeutsch": "Tilia", "strname": "Richard-Wagner-Straße", "pflanzjahr": 2013, "standalter": 11, "bezirk": "Zentrum", "standortnr": "73388", "wassermenge": 50, "wassersumme": 200, "anzahlg": 4 }, "geometry": { "type": "Point", "coordinates": [ 12.3747212723, 51.343911073699999 ] } },
{ "type": "Feature", "properties": { "id": "id-7975", "lat": 51.319736835599997, "lng": 12.3413807448, "artdtsch": "Baumhasel", "artbot": "Corylus colurna", "gattungdeutsch": "Corylus", "strname": "Könneritzstraße", "pflanzjahr": 1985, "standalter": 39, "bezirk": "Schleußig", "standortnr": "39430", "wassermenge": 27, "wassersumme": 27, "anzahlg": 1 }, "geometry": { "type": "Point", "coordinates": [ 12.3413807448, 51.319736835599997 ] } },
{ "type": "Feature", "properties": { "id": "16759", "lat": 51.340468644300003, "lng": 12.314952031800001, "artdtsch": "Brabanter Silber-Linde", "artbot": "Tilia tomentosa 'Brabant'", "gattungdeutsch": "Tilia", "strname": "Merseburger Straße", "pflanzjahr": 2024, "standalter": 0, "bezirk": "Altlindenau", "standortnr": "43719", "wassermenge": 30, "wassersumme": 180, "anzahlg": 6 }, "geometry": { "type": "Point", "coordinates": [ 12.314952031800001, 51.340468644300003 ] } },
{ "type": "Feature", "properties": { "id": "id-57764", "lat": 51.377766546499998, "lng": 12.4464382742, "artdtsch": "Scharlach-Eiche", "artbot": "Quercus coccinea", "gattungdeutsch": "Quercus", "strname": "Eichbergstraße", "pflanzjahr": 2013, "standalter": 11, "bezirk": "Thekla", "standortnr": "73463", "wassermenge": 200, "wassersumme": 200, "anzahlg": 1 }, "geometry": { "type": "Point", "coordinates": [ 12.4464382742, 51.377766546499998 ] } },
{ "type": "Feature", "properties": { "id": "id-60109", "lat": 51.31293395, "lng": 12.2887082157, "artdtsch": "Platane", "artbot": "Platanus x acerifolia", "gattungdeutsch": "Platanus", "strname": "Ratzelstraße", "pflanzjahr": 2019, "standalter": 5, "bezirk": "Grünau-Siedlung", "standortnr": "76225", "wassermenge": 100, "wassersumme": 400, "anzahlg": 4 }, "geometry": { "type": "Point", "coordinates": [ 12.2887082157, 51.31293395 ] } },
{ "type": "Feature", "properties": { "id": "5871", "lat": 51.267447378999996, "lng": 12.291201086499999, "artdtsch": "Säulen-Ahorn", "artbot": "Acer platanoides 'Columnare'", "gattungdeutsch": "Acer", "strname": "Holunderweg", "pflanzjahr": 2016, "standalter": 8, "bezirk": "Knautkleeberg-Knauthain", "standortnr": "75046", "wassermenge": 30, "wassersumme": 30, "anzahlg": 1 }, "geometry": { "type": "Point", "coordinates": [ 12.291201086499999, 51.267447379 ] } },
{ "type": "Feature", "properties": { "id": "id-22223", "lat": 51.324252635199997, "lng": 12.3806846799, "artdtsch": "Platane", "artbot": "Platanus x acerifolia", "gattungdeutsch": "Platanus", "strname": "Lößniger Straße", "pflanzjahr": 2001, "standalter": 23, "bezirk": "Südvorstadt", "standortnr": "31236", "wassermenge": 10, "wassersumme": 20, "anzahlg": 2 }, "geometry": { "type": "Point", "coordinates": [ 12.3806846799, 51.324252635199997 ] } },
{ "type": "Feature", "properties": { "id": "11880", "lat": 51.3221545213, "lng": 12.321261415, "artdtsch": "Süßkirsche 'Burlat'", "artbot": "Prunus avium 'Burlat'", "gattungdeutsch": "Prunus", "strname": "Gleis-Grün-Zug Bahnhof Plagwitz", "pflanzjahr": 2016, "standalter": 8, "bezirk": "Plagwitz", "standortnr": "G42183", "wassermenge": 150, "wassersumme": 550, "anzahlg": 5 }, "geometry": { "type": "Point", "coordinates": [ 12.321261415, 51.3221545213 ] } },
{ "type": "Feature", "properties": { "id": "102045", "lat": 51.322670403799997, "lng": 12.3210954064, "artdtsch": "Haus-Apfel 'Rote Sternrenette'", "artbot": "Malus domestica 'Rote Sternrenette'", "gattungdeutsch": "Malus", "strname": "Gleis-Grün-Zug Bahnhof Plagwitz", "pflanzjahr": 2016, "standalter": 8, "bezirk": "Plagwitz", "standortnr": "G42212", "wassermenge": 150, "wassersumme": 550, "anzahlg": 5 }, "geometry": { "type": "Point", "coordinates": [ 12.3210954064, 51.322670403799997 ] } },
{ "type": "Feature", "properties": { "id": "id-10980", "lat": 51.339091074099997, "lng": 12.2991595217, "artdtsch": "Kaiser-Linde", "artbot": "Tilia x vulgaris 'Pallida'", "gattungdeutsch": "Tilia", "strname": "Schomburgkstraße", "pflanzjahr": 2021, "standalter": 3, "bezirk": "Neulindenau", "standortnr": "45752", "wassermenge": 100, "wassersumme": 100, "anzahlg": 1 }, "geometry": { "type": "Point", "coordinates": [ 12.2991595217, 51.339091074099997 ] } },
{ "type": "Feature", "properties": { "id": "1655", "lat": 51.319664625500003, "lng": 12.2775624979, "artdtsch": "Zerr-Eiche", "artbot": "Quercus cerris", "gattungdeutsch": "Quercus", "strname": "Kiewer Straße", "pflanzjahr": 2020, "standalter": 4, "bezirk": "Schönau", "standortnr": "47435", "wassermenge": 150, "wassersumme": 450, "anzahlg": 4 }, "geometry": { "type": "Point", "coordinates": [ 12.2775624979, 51.319664625500003 ] } },
{ "type": "Feature", "properties": { "id": "3314", "lat": 51.325178073899998, "lng": 12.274053264799999, "artdtsch": "Zerr-Eiche", "artbot": "Quercus cerris", "gattungdeutsch": "Quercus", "strname": "Kiewer Straße", "pflanzjahr": 2021, "standalter": 3, "bezirk": "Grünau-Nord", "standortnr": "47563", "wassermenge": 100, "wassersumme": 500, "anzahlg": 5 }, "geometry": { "type": "Point", "coordinates": [ 12.274053264799999, 51.325178073899998 ] } },
{ "type": "Feature", "properties": { "id": "id-30305", "lat": 51.332586640400002, "lng": 12.4063924881, "artdtsch": "Kegelförmiger Spitz-Ahorn", "artbot": "Acer platanoides 'Emerald Queen'", "gattungdeutsch": "Acer", "strname": "Riebeckstraße", "pflanzjahr": 1996, "standalter": 28, "bezirk": "Reudnitz-Thonberg", "standortnr": "22126", "wassermenge": 40, "wassersumme": 70, "anzahlg": 2 }, "geometry": { "type": "Point", "coordinates": [ 12.4063924881, 51.332586640400002 ] } },
{ "type": "Feature", "properties": { "id": "id-59422", "lat": 51.334896874499996, "lng": 12.3351950099, "artdtsch": "Amberbaum", "artbot": "Liquidambar styraciflua", "gattungdeutsch": "Liquidambar", "strname": "Siemeringstraße", "pflanzjahr": 2017, "standalter": 7, "bezirk": "Lindenau", "standortnr": "75078", "wassermenge": 80, "wassersumme": 1040, "anzahlg": 14 }, "geometry": { "type": "Point", "coordinates": [ 12.3351950099, 51.334896874499996 ] } },
{ "type": "Feature", "properties": { "id": "id-30217", "lat": 51.348391907600003, "lng": 12.4014659646, "artdtsch": "Stadt-Linde", "artbot": "Tilia cordata 'Greenspire'", "gattungdeutsch": "Tilia", "strname": "Schulze-Delitzsch-Straße", "pflanzjahr": 2014, "standalter": 10, "bezirk": "Neustadt-Neuschönefeld", "standortnr": "8060", "wassermenge": 50, "wassersumme": 400, "anzahlg": 18 }, "geometry": { "type": "Point", "coordinates": [ 12.4014659646, 51.348391907600003 ] } },
{ "type": "Feature", "properties": { "id": "90382", "lat": 51.324842338499998, "lng": 12.2905831352, "artdtsch": "Stiel-Eiche", "artbot": "Quercus robur", "gattungdeutsch": "Quercus", "strname": "WG Grünau WK 5.1-Garskestraße/Lützner Straße/Schönauer Straße", "pflanzjahr": 2020, "standalter": 4, "bezirk": "Schönau", "standortnr": "78028", "wassermenge": 100, "wassersumme": 200, "anzahlg": 2 }, "geometry": { "type": "Point", "coordinates": [ 12.2905831352, 51.324842338499998 ] } },
{ "type": "Feature", "properties": { "id": "id-55860", "lat": 51.343118740100003, "lng": 12.3173792867, "artdtsch": "Winter-Linde 'Rancho'", "artbot": "Tilia cordata 'Rancho'", "gattungdeutsch": "Tilia", "strname": "Rosenmüllerstraße", "pflanzjahr": 2011, "standalter": 13, "bezirk": "Leutzsch", "standortnr": "71506", "wassermenge": 25, "wassersumme": 25, "anzahlg": 1 }, "geometry": { "type": "Point", "coordinates": [ 12.3173792867, 51.343118740100003 ] } },
{ "type": "Feature", "properties": { "id": "3266", "lat": 51.323913958799999, "lng": 12.2923895534, "artdtsch": "Ess-Kastanie", "artbot": "Castanea sativa", "gattungdeutsch": "Castanea", "strname": "Parkplatz 6104", "pflanzjahr": 2021, "standalter": 3, "bezirk": "Grünau-Ost", "standortnr": "53307", "wassermenge": 150, "wassersumme": 150, "anzahlg": 1 }, "geometry": { "type": "Point", "coordinates": [ 12.2923895534, 51.323913958799999 ] } },
{ "type": "Feature", "properties": { "id": "16614", "lat": 51.367557059399999, "lng": 12.3719495314, "artdtsch": "Hopfenbuche", "artbot": "Ostrya carpinifolia", "gattungdeutsch": "Ostrya", "strname": "Corinthstraße", "pflanzjahr": 2024, "standalter": 0, "bezirk": "Gohlis-Mitte", "standortnr": "133797", "wassermenge": 50, "wassersumme": 525, "anzahlg": 20 }, "geometry": { "type": "Point", "coordinates": [ 12.3719495314, 51.367557059399999 ] } },
{ "type": "Feature", "properties": { "id": "90159", "lat": 51.329153296699999, "lng": 12.308255879500001, "artdtsch": "Schwedische Mehlbeere", "artbot": "Sorbus intermedia", "gattungdeutsch": "Sorbus", "strname": "Lindenauer Hafen", "pflanzjahr": 2015, "standalter": 9, "bezirk": "Schönau", "standortnr": "G20512", "wassermenge": 50, "wassersumme": 50, "anzahlg": 1 }, "geometry": { "type": "Point", "coordinates": [ 12.308255879500001, 51.329153296699999 ] } },
{ "type": "Feature", "properties": { "id": "15804", "lat": 51.320165682599999, "lng": 12.283970565300001, "artdtsch": "Stadt-Linde", "artbot": "Tilia cordata 'Greenspire'", "gattungdeutsch": "Tilia", "strname": "Heilbronner Straße", "pflanzjahr": 2023, "standalter": 1, "bezirk": "Grünau-Mitte", "standortnr": "125968", "wassermenge": 100, "wassersumme": 300, "anzahlg": 3 }, "geometry": { "type": "Point", "coordinates": [ 12.283970565300001, 51.320165682599999 ] } },
{ "type": "Feature", "properties": { "id": "90276", "lat": 51.325777058200003, "lng": 12.2783536536, "artdtsch": "Hänge-Buche", "artbot": "Fagus sylvatica 'Pendula'", "gattungdeutsch": "Fagus", "strname": "Schönauer Viertel, nördlich Weimarer Straße", "pflanzjahr": 2016, "standalter": 8, "bezirk": "Schönau", "standortnr": "G46013", "wassermenge": 15, "wassersumme": 30, "anzahlg": 2 }, "geometry": { "type": "Point", "coordinates": [ 12.2783536536, 51.325777058200003 ] } },
{ "type": "Feature", "properties": { "id": "3530", "lat": 51.319283397699998, "lng": 12.284361883600001, "artdtsch": "Brabanter Silber-Linde", "artbot": "Tilia tomentosa 'Brabant'", "gattungdeutsch": "Tilia", "strname": "Heilbronner Straße", "pflanzjahr": 2022, "standalter": 2, "bezirk": "Grünau-Mitte", "standortnr": "87272", "wassermenge": 100, "wassersumme": 300, "anzahlg": 3 }, "geometry": { "type": "Point", "coordinates": [ 12.284361883600001, 51.319283397699998 ] } },
{ "type": "Feature", "properties": { "id": "1648", "lat": 51.325550782000001, "lng": 12.2898525808, "artdtsch": "Stiel-Eiche", "artbot": "Quercus robur", "gattungdeutsch": "Quercus", "strname": "Parkplatz 6004", "pflanzjahr": 2020, "standalter": 4, "bezirk": "Schönau", "standortnr": "78001", "wassermenge": 100, "wassersumme": 300, "anzahlg": 3 }, "geometry": { "type": "Point", "coordinates": [ 12.2898525808, 51.325550782 ] } },
{ "type": "Feature", "properties": { "id": "id-12700", "lat": 51.340726768899998, "lng": 12.3295708124, "artdtsch": "Kugel-Spitz-Ahorn", "artbot": "Acer platanoides 'Globosum'", "gattungdeutsch": "Acer", "strname": "Friesenstraße", "pflanzjahr": 1930, "standalter": 94, "bezirk": "Altlindenau", "standortnr": "54914", "wassermenge": 10, "wassersumme": 10, "anzahlg": 1 }, "geometry": { "type": "Point", "coordinates": [ 12.3295708124, 51.340726768899998 ] } },
{ "type": "Feature", "properties": { "id": "id-57801", "lat": 51.325855146199999, "lng": 12.276428837599999, "artdtsch": "Nelken-Kirsche", "artbot": "Prunus serrulata 'Kanzan'", "gattungdeutsch": "Prunus", "strname": "Mühlhäuser Ring", "pflanzjahr": 2014, "standalter": 10, "bezirk": "Schönau", "standortnr": "74224", "wassermenge": 80, "wassersumme": 875, "anzahlg": 18 }, "geometry": { "type": "Point", "coordinates": [ 12.276428837599999, 51.325855146199999 ] } },
{ "type": "Feature", "properties": { "id": "1647", "lat": 51.325639427799999, "lng": 12.289721439499999, "artdtsch": "Stiel-Eiche", "artbot": "Quercus robur", "gattungdeutsch": "Quercus", "strname": "Parkplatz 6004", "pflanzjahr": 2020, "standalter": 4, "bezirk": "Schönau", "standortnr": "78000", "wassermenge": 100, "wassersumme": 300, "anzahlg": 3 }, "geometry": { "type": "Point", "coordinates": [ 12.289721439499999, 51.325639427799999 ] } },
{ "type": "Feature", "properties": { "id": "id-60286", "lat": 51.327383866600002, "lng": 12.277556605899999, "artdtsch": "Stiel-Eiche", "artbot": "Quercus robur", "gattungdeutsch": "Quercus", "strname": "Lyoner Straße", "pflanzjahr": 2019, "standalter": 5, "bezirk": "Schönau", "standortnr": "76338", "wassermenge": 100, "wassersumme": 400, "anzahlg": 4 }, "geometry": { "type": "Point", "coordinates": [ 12.277556605899999, 51.327383866600002 ] } },
{ "type": "Feature", "properties": { "id": "15969", "lat": 51.345848356499999, "lng": 12.3152758145, "artdtsch": "Säulen-Eiche", "artbot": "Quercus robur 'Fastigiata'", "gattungdeutsch": "Quercus", "strname": "Benediktusstraße", "pflanzjahr": 2020, "standalter": 4, "bezirk": "Leutzsch", "standortnr": "76980", "wassermenge": 25, "wassersumme": 155, "anzahlg": 12 }, "geometry": { "type": "Point", "coordinates": [ 12.3152758145, 51.345848356499999 ] } },
{ "type": "Feature", "properties": { "id": "id-30650", "lat": 51.341877899899998, "lng": 12.4058531286, "artdtsch": "Amberbaum", "artbot": "Liquidambar styraciflua", "gattungdeutsch": "Liquidambar", "strname": "Hermann-Liebmann-Straße", "pflanzjahr": 2011, "standalter": 13, "bezirk": "Neustadt-Neuschönefeld", "standortnr": "9047", "wassermenge": 40, "wassersumme": 640, "anzahlg": 16 }, "geometry": { "type": "Point", "coordinates": [ 12.4058531286, 51.341877899899998 ] } },
{ "type": "Feature", "properties": { "id": "94868", "lat": 51.322661150400002, "lng": 12.321351310200001, "artdtsch": "Walnuss", "artbot": "Juglans regia", "gattungdeutsch": "Juglans", "strname": "Gleis-Grün-Zug Bahnhof Plagwitz", "pflanzjahr": 2016, "standalter": 8, "bezirk": "Plagwitz", "standortnr": "G42211", "wassermenge": 150, "wassersumme": 650, "anzahlg": 6 }, "geometry": { "type": "Point", "coordinates": [ 12.321351310200001, 51.322661150400002 ] } },
{ "type": "Feature", "properties": { "id": "id-28476", "lat": 51.334119320500001, "lng": 12.4023854236, "artdtsch": "Berg-Ahorn", "artbot": "Acer pseudoplatanus", "gattungdeutsch": "Acer", "strname": "Reichpietschstraße", "pflanzjahr": 1960, "standalter": 64, "bezirk": "Reudnitz-Thonberg", "standortnr": "22206", "wassermenge": 10, "wassersumme": 160, "anzahlg": 30 }, "geometry": { "type": "Point", "coordinates": [ 12.4023854236, 51.334119320500001 ] } },
{ "type": "Feature", "properties": { "id": "id-30645", "lat": 51.341744498099999, "lng": 12.405990192699999, "artdtsch": "Kaiser-Linde", "artbot": "Tilia x vulgaris 'Pallida'", "gattungdeutsch": "Tilia", "strname": "Hermann-Liebmann-Straße", "pflanzjahr": 2011, "standalter": 13, "bezirk": "Neustadt-Neuschönefeld", "standortnr": "9041", "wassermenge": 40, "wassersumme": 640, "anzahlg": 16 }, "geometry": { "type": "Point", "coordinates": [ 12.405990192699999, 51.341744498099999 ] } },
{ "type": "Feature", "properties": { "id": "16026", "lat": 51.323487633200003, "lng": 12.274861526800001, "artdtsch": "Zerr-Eiche", "artbot": "Quercus cerris", "gattungdeutsch": "Quercus", "strname": "Kiewer Straße", "pflanzjahr": 2020, "standalter": 4, "bezirk": "Grünau-Nord", "standortnr": "47543", "wassermenge": 150, "wassersumme": 450, "anzahlg": 4 }, "geometry": { "type": "Point", "coordinates": [ 12.274861526800001, 51.323487633200003 ] } },
{ "type": "Feature", "properties": { "id": "16025", "lat": 51.321958993199999, "lng": 12.2758282229, "artdtsch": "Zerr-Eiche", "artbot": "Quercus cerris", "gattungdeutsch": "Quercus", "strname": "Kiewer Straße", "pflanzjahr": 2020, "standalter": 4, "bezirk": "Grünau-Nord", "standortnr": "47496", "wassermenge": 150, "wassersumme": 450, "anzahlg": 4 }, "geometry": { "type": "Point", "coordinates": [ 12.2758282229, 51.321958993199999 ] } },
{ "type": "Feature", "properties": { "id": "8245", "lat": 51.351246526499999, "lng": 12.361694353400001, "artdtsch": "Winter-Linde", "artbot": "Tilia cordata", "gattungdeutsch": "Tilia", "strname": "Rosental (vorderes)", "pflanzjahr": 2019, "standalter": 5, "bezirk": "Zentrum-Nordwest", "standortnr": "G5174", "wassermenge": 18, "wassersumme": 50, "anzahlg": 5 }, "geometry": { "type": "Point", "coordinates": [ 12.361694353400001, 51.351246526499999 ] } },
{ "type": "Feature", "properties": { "id": "3322", "lat": 51.321137669800002, "lng": 12.2764169099, "artdtsch": "Zerr-Eiche", "artbot": "Quercus cerris", "gattungdeutsch": "Quercus", "strname": "Kiewer Straße", "pflanzjahr": 2021, "standalter": 3, "bezirk": "Grünau-Nord", "standortnr": "47486", "wassermenge": 150, "wassersumme": 650, "anzahlg": 6 }, "geometry": { "type": "Point", "coordinates": [ 12.2764169099, 51.321137669800002 ] } },
{ "type": "Feature", "properties": { "id": "id-60274", "lat": 51.327827307699998, "lng": 12.2792984268, "artdtsch": "Stiel-Eiche", "artbot": "Quercus robur", "gattungdeutsch": "Quercus", "strname": "Lyoner Straße", "pflanzjahr": 2019, "standalter": 5, "bezirk": "Schönau", "standortnr": "76349", "wassermenge": 100, "wassersumme": 300, "anzahlg": 3 }, "geometry": { "type": "Point", "coordinates": [ 12.2792984268, 51.327827307699998 ] } },
{ "type": "Feature", "properties": { "id": "2323", "lat": 51.343866914700001, "lng": 12.3187159579, "artdtsch": "Säulen-Tulpenbaum", "artbot": "Liriodendron tulipifera 'Fastigiatum'", "gattungdeutsch": "Liriodendron", "strname": "Pufendorfstraße", "pflanzjahr": 2021, "standalter": 3, "bezirk": "Leutzsch", "standortnr": "77004", "wassermenge": 30, "wassersumme": 60, "anzahlg": 2 }, "geometry": { "type": "Point", "coordinates": [ 12.3187159579, 51.343866914700001 ] } },
{ "type": "Feature", "properties": { "id": "15770", "lat": 51.307228528899998, "lng": 12.294532696699999, "artdtsch": "Stadt-Linde", "artbot": "Tilia cordata 'Greenspire'", "gattungdeutsch": "Tilia", "strname": "Rapsweg", "pflanzjahr": 2022, "standalter": 2, "bezirk": "Großzschocher", "standortnr": "51613", "wassermenge": 150, "wassersumme": 150, "anzahlg": 1 }, "geometry": { "type": "Point", "coordinates": [ 12.294532696699999, 51.307228528899998 ] } },
{ "type": "Feature", "properties": { "id": "id-60299", "lat": 51.327141365599999, "lng": 12.2756926503, "artdtsch": "Stiel-Eiche", "artbot": "Quercus robur", "gattungdeutsch": "Quercus", "strname": "Lyoner Straße", "pflanzjahr": 2019, "standalter": 5, "bezirk": "Schönau", "standortnr": "76327", "wassermenge": 100, "wassersumme": 500, "anzahlg": 5 }, "geometry": { "type": "Point", "coordinates": [ 12.2756926503, 51.327141365599999 ] } },
{ "type": "Feature", "properties": { "id": "11264", "lat": 51.327119236599998, "lng": 12.3239800752, "artdtsch": "Feld-Ahorn 'Elsrijk'", "artbot": "Acer campestre 'Elsrijk'", "gattungdeutsch": "Acer", "strname": "ehemalige Gleistrasse zwischen Gießerstraße und Naumburger Straße", "pflanzjahr": 2013, "standalter": 11, "bezirk": "Plagwitz", "standortnr": "G3529", "wassermenge": 20, "wassersumme": 30, "anzahlg": 2 }, "geometry": { "type": "Point", "coordinates": [ 12.3239800752, 51.327119236599998 ] } },
{ "type": "Feature", "properties": { "id": "94865", "lat": 51.322608727199999, "lng": 12.3217173879, "artdtsch": "Mispel", "artbot": "Mespilus germanica", "gattungdeutsch": "Mespilus", "strname": "Gleis-Grün-Zug Bahnhof Plagwitz", "pflanzjahr": 2016, "standalter": 8, "bezirk": "Plagwitz", "standortnr": "G42208", "wassermenge": 150, "wassersumme": 650, "anzahlg": 6 }, "geometry": { "type": "Point", "coordinates": [ 12.3217173879, 51.322608727199999 ] } },
{ "type": "Feature", "properties": { "id": "id-60280", "lat": 51.327606742, "lng": 12.2785118573, "artdtsch": "Stiel-Eiche", "artbot": "Quercus robur", "gattungdeutsch": "Quercus", "strname": "Lyoner Straße", "pflanzjahr": 2019, "standalter": 5, "bezirk": "Schönau", "standortnr": "76344", "wassermenge": 100, "wassersumme": 400, "anzahlg": 4 }, "geometry": { "type": "Point", "coordinates": [ 12.2785118573, 51.327606742 ] } },
{ "type": "Feature", "properties": { "id": "102042", "lat": 51.3219631475, "lng": 12.320971563900001, "artdtsch": "Haus-Apfel 'Topaz'", "artbot": "Malus domestica 'Topaz'", "gattungdeutsch": "Malus", "strname": "Gleis-Grün-Zug Bahnhof Plagwitz", "pflanzjahr": 2016, "standalter": 8, "bezirk": "Plagwitz", "standortnr": "G42201", "wassermenge": 150, "wassersumme": 500, "anzahlg": 5 }, "geometry": { "type": "Point", "coordinates": [ 12.320971563900001, 51.3219631475 ] } },
{ "type": "Feature", "properties": { "id": "id-28442", "lat": 51.3337374647, "lng": 12.3968600848, "artdtsch": "Gefülltblühende Rosskastanie", "artbot": "Aesculus hippocastanum 'Baumannii'", "gattungdeutsch": "Aesculus", "strname": "Johannisallee", "pflanzjahr": 2010, "standalter": 14, "bezirk": "Reudnitz-Thonberg", "standortnr": "22369", "wassermenge": 50, "wassersumme": 50, "anzahlg": 1 }, "geometry": { "type": "Point", "coordinates": [ 12.3968600848, 51.3337374647 ] } },
{ "type": "Feature", "properties": { "id": "id-55859", "lat": 51.343155019800001, "lng": 12.3172629989, "artdtsch": "Winter-Linde 'Rancho'", "artbot": "Tilia cordata 'Rancho'", "gattungdeutsch": "Tilia", "strname": "Rosenmüllerstraße", "pflanzjahr": 2011, "standalter": 13, "bezirk": "Leutzsch", "standortnr": "71505", "wassermenge": 10, "wassersumme": 10, "anzahlg": 1 }, "geometry": { "type": "Point", "coordinates": [ 12.3172629989, 51.343155019800001 ] } },
{ "type": "Feature", "properties": { "id": "17091", "lat": 51.332683157161966, "lng": 12.332827378325078, "artdtsch": "NULL", "artbot": "NULL", "gattungdeutsch": "Quercus", "strname": "Aurelienstraße", "pflanzjahr": 2024, "standalter": 0, "bezirk": "Altlindenau", "standortnr": "osm_wababele_aurstr_28", "wassermenge": 5, "wassersumme": 15, "anzahlg": 6 }, "geometry": { "type": "Point", "coordinates": [ 12.332827378325078, 51.332683157161966 ] } },
{ "type": "Feature", "properties": { "id": "id-12230", "lat": 51.340691533499999, "lng": 12.3137647795, "artdtsch": "Brabanter Silber-Linde", "artbot": "Tilia tomentosa 'Brabant'", "gattungdeutsch": "Tilia", "strname": "Merseburger Straße", "pflanzjahr": 2024, "standalter": 0, "bezirk": "Leutzsch", "standortnr": "43675", "wassermenge": 10, "wassersumme": 10, "anzahlg": 1 }, "geometry": { "type": "Point", "coordinates": [ 12.3137647795, 51.340691533499999 ] } },
{ "type": "Feature", "properties": { "id": "id-13455", "lat": 51.336660278300002, "lng": 12.3422734921, "artdtsch": "Platane", "artbot": "Platanus x acerifolia", "gattungdeutsch": "Platanus", "strname": "Bowmanstraße", "pflanzjahr": 2011, "standalter": 13, "bezirk": "Altlindenau", "standortnr": "44354", "wassermenge": 150, "wassersumme": 350, "anzahlg": 3 }, "geometry": { "type": "Point", "coordinates": [ 12.3422734921, 51.336660278300002 ] } },
{ "type": "Feature", "properties": { "id": "3217", "lat": 51.324270650700001, "lng": 12.293713106, "artdtsch": "Säulen-Tulpenbaum", "artbot": "Liriodendron tulipifera 'Fastigiatum'", "gattungdeutsch": "Liriodendron", "strname": "Weißdornstraße", "pflanzjahr": 2021, "standalter": 3, "bezirk": "Grünau-Ost", "standortnr": "85561", "wassermenge": 100, "wassersumme": 100, "anzahlg": 1 }, "geometry": { "type": "Point", "coordinates": [ 12.293713106, 51.324270650700001 ] } },
{ "type": "Feature", "properties": { "id": "16001", "lat": 51.331808936500003, "lng": 12.325628033599999, "artdtsch": "Säulen-Ulme", "artbot": "Ulmus 'Columella'", "gattungdeutsch": "Ulmus", "strname": "Gießerstraße", "pflanzjahr": 2020, "standalter": 4, "bezirk": "Lindenau", "standortnr": "76961", "wassermenge": 25, "wassersumme": 35, "anzahlg": 2 }, "geometry": { "type": "Point", "coordinates": [ 12.325628033599999, 51.331808936500003 ] } },
{ "type": "Feature", "properties": { "id": "id-29080", "lat": 51.348147917799999, "lng": 12.3718441199, "artdtsch": "Stadt-Linde", "artbot": "Tilia cordata 'Greenspire'", "gattungdeutsch": "Tilia", "strname": "Parthenstraße", "pflanzjahr": 2015, "standalter": 9, "bezirk": "Zentrum-Nord", "standortnr": "12927", "wassermenge": 60, "wassersumme": 60, "anzahlg": 1 }, "geometry": { "type": "Point", "coordinates": [ 12.3718441199, 51.348147917799999 ] } },
{ "type": "Feature", "properties": { "id": "id-57976", "lat": 51.323402449900001, "lng": 12.323238505300001, "artdtsch": "Feld-Ahorn", "artbot": "Acer campestre", "gattungdeutsch": "Acer", "strname": "Weg 5202", "pflanzjahr": 2013, "standalter": 11, "bezirk": "Plagwitz", "standortnr": "73664", "wassermenge": 100, "wassersumme": 745, "anzahlg": 12 }, "geometry": { "type": "Point", "coordinates": [ 12.323238505300001, 51.323402449900001 ] } },
{ "type": "Feature", "properties": { "id": "id-13063", "lat": 51.341582979499996, "lng": 12.337012055500001, "artdtsch": "Blumen-Esche", "artbot": "Fraxinus ornus", "gattungdeutsch": "Fraxinus", "strname": "Erich-Köhn-Straße", "pflanzjahr": 2019, "standalter": 5, "bezirk": "Altlindenau", "standortnr": "54959", "wassermenge": 20, "wassersumme": 105, "anzahlg": 8 }, "geometry": { "type": "Point", "coordinates": [ 12.337012055500001, 51.341582979499996 ] } },
{ "type": "Feature", "properties": { "id": "102048", "lat": 51.3228529533, "lng": 12.321141177199999, "artdtsch": "Haus-Apfel 'Cox Orange'", "artbot": "Malus domestica 'Cox Orange'", "gattungdeutsch": "Malus", "strname": "Gleis-Grün-Zug Bahnhof Plagwitz", "pflanzjahr": 2016, "standalter": 8, "bezirk": "Plagwitz", "standortnr": "G42215", "wassermenge": 150, "wassersumme": 550, "anzahlg": 5 }, "geometry": { "type": "Point", "coordinates": [ 12.321141177199999, 51.3228529533 ] } },
{ "type": "Feature", "properties": { "id": "6309", "lat": 51.347351293099997, "lng": 12.3979465911, "artdtsch": "Sorte Gemeiner Fliede", "artbot": "Syringa vulgaris 'Mme Florentine Stepman'", "gattungdeutsch": "Syringa", "strname": "Mariannenstraße", "pflanzjahr": 2023, "standalter": 1, "bezirk": "Neustadt-Neuschönefeld", "standortnr": "8212", "wassermenge": 10, "wassersumme": 50, "anzahlg": 5 }, "geometry": { "type": "Point", "coordinates": [ 12.3979465911, 51.347351293099997 ] } },
{ "type": "Feature", "properties": { "id": "8097", "lat": 51.320799917899997, "lng": 12.254780132900001, "artdtsch": "Stiel-Eiche", "artbot": "Quercus robur", "gattungdeutsch": "Quercus", "strname": "Park Miltitz", "pflanzjahr": 2020, "standalter": 4, "bezirk": "Miltitz", "standortnr": "G49709", "wassermenge": 50, "wassersumme": 50, "anzahlg": 1 }, "geometry": { "type": "Point", "coordinates": [ 12.254780132900001, 51.320799917899997 ] } },
{ "type": "Feature", "properties": { "id": "id-31670", "lat": 51.343845169799998, "lng": 12.427889881400001, "artdtsch": "Schmalkronige Weiß-Esche", "artbot": "Fraxinus americana 'Skyline'", "gattungdeutsch": "Fraxinus", "strname": "Wurzner Straße", "pflanzjahr": 2014, "standalter": 10, "bezirk": "Sellerhausen-Stünz", "standortnr": "6059", "wassermenge": 35, "wassersumme": 35, "anzahlg": 1 }, "geometry": { "type": "Point", "coordinates": [ 12.427889881400001, 51.343845169799998 ] } },
{ "type": "Feature", "properties": { "id": "id-60108", "lat": 51.312968245100002, "lng": 12.2889074, "artdtsch": "Platane", "artbot": "Platanus x acerifolia", "gattungdeutsch": "Platanus", "strname": "Ratzelstraße", "pflanzjahr": 2019, "standalter": 5, "bezirk": "Grünau-Siedlung", "standortnr": "76224", "wassermenge": 100, "wassersumme": 400, "anzahlg": 4 }, "geometry": { "type": "Point", "coordinates": [ 12.2889074, 51.312968245100002 ] } },
{ "type": "Feature", "properties": { "id": "id-60307", "lat": 51.327281342600003, "lng": 12.2769036, "artdtsch": "Stiel-Eiche", "artbot": "Quercus robur", "gattungdeutsch": "Quercus", "strname": "Lyoner Straße", "pflanzjahr": 2019, "standalter": 5, "bezirk": "Schönau", "standortnr": "76334", "wassermenge": 100, "wassersumme": 400, "anzahlg": 4 }, "geometry": { "type": "Point", "coordinates": [ 12.2769036, 51.327281342600003 ] } },
{ "type": "Feature", "properties": { "id": "id-57972", "lat": 51.323335661999998, "lng": 12.3238026552, "artdtsch": "Feld-Ahorn", "artbot": "Acer campestre", "gattungdeutsch": "Acer", "strname": "Weg 5202", "pflanzjahr": 2013, "standalter": 11, "bezirk": "Plagwitz", "standortnr": "73660", "wassermenge": 100, "wassersumme": 745, "anzahlg": 11 }, "geometry": { "type": "Point", "coordinates": [ 12.3238026552, 51.323335662 ] } },
{ "type": "Feature", "properties": { "id": "id-12589", "lat": 51.335226997600003, "lng": 12.331751158599999, "artdtsch": "Chinesische Wildbirne 'Chanticleer'", "artbot": "Pyrus calleryana 'Chanticleer'", "gattungdeutsch": "Pyrus", "strname": "Schadowstraße", "pflanzjahr": 2000, "standalter": 24, "bezirk": "Lindenau", "standortnr": "44386", "wassermenge": 100, "wassersumme": 700, "anzahlg": 7 }, "geometry": { "type": "Point", "coordinates": [ 12.331751158599999, 51.335226997600003 ] } },
{ "type": "Feature", "properties": { "id": "16615", "lat": 51.367638942900001, "lng": 12.3718354606, "artdtsch": "Hopfenbuche", "artbot": "Ostrya carpinifolia", "gattungdeutsch": "Ostrya", "strname": "Corinthstraße", "pflanzjahr": 2024, "standalter": 0, "bezirk": "Gohlis-Mitte", "standortnr": "133798", "wassermenge": 50, "wassersumme": 200, "anzahlg": 8 }, "geometry": { "type": "Point", "coordinates": [ 12.3718354606, 51.367638942900001 ] } },
{ "type": "Feature", "properties": { "id": "id-29920", "lat": 51.347352573099997, "lng": 12.3974579264, "artdtsch": "Robinie 'Sandraudiga'", "artbot": "Robinia pseudoacacia 'Sandraudiga'", "gattungdeutsch": "Robinia", "strname": "Rosa-Luxemburg-Straße", "pflanzjahr": 2018, "standalter": 6, "bezirk": "Neustadt-Neuschönefeld", "standortnr": "9171", "wassermenge": 20, "wassersumme": 80, "anzahlg": 6 }, "geometry": { "type": "Point", "coordinates": [ 12.3974579264, 51.347352573099997 ] } },
{ "type": "Feature", "properties": { "id": "id-27729", "lat": 51.331407141900002, "lng": 12.3738248956, "artdtsch": "Platane", "artbot": "Platanus x acerifolia", "gattungdeutsch": "Platanus", "strname": "Karl-Liebknecht-Straße", "pflanzjahr": 2015, "standalter": 9, "bezirk": "Zentrum-Süd", "standortnr": "34274", "wassermenge": 60, "wassersumme": 140, "anzahlg": 3 }, "geometry": { "type": "Point", "coordinates": [ 12.3738248956, 51.331407141900002 ] } },
{ "type": "Feature", "properties": { "id": "90161", "lat": 51.32914216, "lng": 12.308170536900001, "artdtsch": "Schwedische Mehlbeere", "artbot": "Sorbus intermedia", "gattungdeutsch": "Sorbus", "strname": "Lindenauer Hafen", "pflanzjahr": 2015, "standalter": 9, "bezirk": "Schönau", "standortnr": "G20514", "wassermenge": 50, "wassersumme": 50, "anzahlg": 1 }, "geometry": { "type": "Point", "coordinates": [ 12.308170536900001, 51.32914216 ] } },
{ "type": "Feature", "properties": { "id": "94845", "lat": 51.322255425199998, "lng": 12.321221657000001, "artdtsch": "Walnuss", "artbot": "Juglans regia", "gattungdeutsch": "Juglans", "strname": "Gleis-Grün-Zug Bahnhof Plagwitz", "pflanzjahr": 2016, "standalter": 8, "bezirk": "Plagwitz", "standortnr": "G42168", "wassermenge": 150, "wassersumme": 650, "anzahlg": 6 }, "geometry": { "type": "Point", "coordinates": [ 12.321221657, 51.322255425199998 ] } },
{ "type": "Feature", "properties": { "id": "id-60281", "lat": 51.327564537000001, "lng": 12.2783677824, "artdtsch": "Stiel-Eiche", "artbot": "Quercus robur", "gattungdeutsch": "Quercus", "strname": "Lyoner Straße", "pflanzjahr": 2019, "standalter": 5, "bezirk": "Schönau", "standortnr": "76343", "wassermenge": 100, "wassersumme": 400, "anzahlg": 4 }, "geometry": { "type": "Point", "coordinates": [ 12.2783677824, 51.327564537 ] } },
{ "type": "Feature", "properties": { "id": "id-59974", "lat": 51.390509352899997, "lng": 12.318190875399999, "artdtsch": "Stadt-Linde", "artbot": "Tilia cordata 'Greenspire'", "gattungdeutsch": "Tilia", "strname": "Rudolf-Breitscheid-Straße", "pflanzjahr": 2018, "standalter": 6, "bezirk": "Lindenthal", "standortnr": "75517", "wassermenge": 10, "wassersumme": 20, "anzahlg": 2 }, "geometry": { "type": "Point", "coordinates": [ 12.318190875399999, 51.390509352899997 ] } },
{ "type": "Feature", "properties": { "id": "id-29925", "lat": 51.348148241499999, "lng": 12.3995572378, "artdtsch": "Robinie 'Sandraudiga'", "artbot": "Robinia pseudoacacia 'Sandraudiga'", "gattungdeutsch": "Robinia", "strname": "Rosa-Luxemburg-Straße", "pflanzjahr": 2018, "standalter": 6, "bezirk": "Neustadt-Neuschönefeld", "standortnr": "9177", "wassermenge": 20, "wassersumme": 78, "anzahlg": 6 }, "geometry": { "type": "Point", "coordinates": [ 12.3995572378, 51.348148241499999 ] } },
{ "type": "Feature", "properties": { "id": "90144", "lat": 51.329267767899999, "lng": 12.3087594017, "artdtsch": "Schwedische Mehlbeere", "artbot": "Sorbus intermedia", "gattungdeutsch": "Sorbus", "strname": "Lindenauer Hafen", "pflanzjahr": 2015, "standalter": 9, "bezirk": "Schönau", "standortnr": "G20486", "wassermenge": 80, "wassersumme": 130, "anzahlg": 2 }, "geometry": { "type": "Point", "coordinates": [ 12.3087594017, 51.329267767899999 ] } },
{ "type": "Feature", "properties": { "id": "90148", "lat": 51.329303224199997, "lng": 12.3083260558, "artdtsch": "Schwedische Mehlbeere", "artbot": "Sorbus intermedia", "gattungdeutsch": "Sorbus", "strname": "Lindenauer Hafen", "pflanzjahr": 2015, "standalter": 9, "bezirk": "Schönau", "standortnr": "G20495", "wassermenge": 50, "wassersumme": 50, "anzahlg": 1 }, "geometry": { "type": "Point", "coordinates": [ 12.3083260558, 51.329303224199997 ] } },
{ "type": "Feature", "properties": { "id": "id-58978", "lat": 51.346578023299998, "lng": 12.3159689069, "artdtsch": "Säulen-Eiche 'Fastigiata Koster'", "artbot": "Quercus robur 'Fastigiata Koster'", "gattungdeutsch": "Quercus", "strname": "Weinbergstraße", "pflanzjahr": 2019, "standalter": 5, "bezirk": "Leutzsch", "standortnr": "75863", "wassermenge": 40, "wassersumme": 120, "anzahlg": 4 }, "geometry": { "type": "Point", "coordinates": [ 12.3159689069, 51.346578023299998 ] } },
{ "type": "Feature", "properties": { "id": "id-13050", "lat": 51.341571576200003, "lng": 12.3367954461, "artdtsch": "Blumen-Esche", "artbot": "Fraxinus ornus", "gattungdeutsch": "Fraxinus", "strname": "Erich-Köhn-Straße", "pflanzjahr": 2019, "standalter": 5, "bezirk": "Altlindenau", "standortnr": "54978", "wassermenge": 20, "wassersumme": 130, "anzahlg": 10 }, "geometry": { "type": "Point", "coordinates": [ 12.3367954461, 51.341571576200003 ] } },
{ "type": "Feature", "properties": { "id": "90145", "lat": 51.329427007200003, "lng": 12.308620434, "artdtsch": "Schwedische Mehlbeere", "artbot": "Sorbus intermedia", "gattungdeutsch": "Sorbus", "strname": "Lindenauer Hafen", "pflanzjahr": 2015, "standalter": 9, "bezirk": "Schönau", "standortnr": "G20489", "wassermenge": 50, "wassersumme": 50, "anzahlg": 1 }, "geometry": { "type": "Point", "coordinates": [ 12.308620434, 51.329427007200003 ] } },
{ "type": "Feature", "properties": { "id": "id-58006", "lat": 51.323244441200004, "lng": 12.3245846927, "artdtsch": "Hainbuche", "artbot": "Carpinus betulus", "gattungdeutsch": "Carpinus", "strname": "Weg 5202", "pflanzjahr": 2013, "standalter": 11, "bezirk": "Plagwitz", "standortnr": "73657", "wassermenge": 100, "wassersumme": 640, "anzahlg": 8 }, "geometry": { "type": "Point", "coordinates": [ 12.3245846927, 51.323244441200004 ] } },
{ "type": "Feature", "properties": { "id": "17183", "lat": 51.2849167, "lng": 12.33665, "artdtsch": "Gemeine Esche", "artbot": "Fraxinus excelsior", "gattungdeutsch": "Fraxinus", "strname": "Lauerscher Weg", "pflanzjahr": 2024, "standalter": 0, "bezirk": "Großzschocher", "standortnr": "osm_cossi_1\n", "wassermenge": 80, "wassersumme": 1265, "anzahlg": 16 }, "geometry": { "type": "Point", "coordinates": [ 12.33665, 51.2849167 ] } },
{ "type": "Feature", "properties": { "id": "15793", "lat": 51.325099297800001, "lng": 12.2902991442, "artdtsch": "Stiel-Eiche", "artbot": "Quercus robur", "gattungdeutsch": "Quercus", "strname": "WG Grünau WK 5.1-Garskestraße/Lützner Straße/Schönauer Straße", "pflanzjahr": 2020, "standalter": 4, "bezirk": "Schönau", "standortnr": "78024", "wassermenge": 100, "wassersumme": 400, "anzahlg": 4 }, "geometry": { "type": "Point", "coordinates": [ 12.2902991442, 51.325099297800001 ] } },
{ "type": "Feature", "properties": { "id": "9555", "lat": 51.328935722300002, "lng": 12.4194075429, "artdtsch": "NULL", "artbot": "Rhododendron 'Old Port'", "gattungdeutsch": "Rhododendron", "strname": "Ostfriedhof", "pflanzjahr": 2010, "standalter": 14, "bezirk": "Anger-Crottendorf", "standortnr": "G43737", "wassermenge": 30, "wassersumme": 140, "anzahlg": 5 }, "geometry": { "type": "Point", "coordinates": [ 12.4194075429, 51.328935722300002 ] } },
{ "type": "Feature", "properties": { "id": "id-60308", "lat": 51.327305520499998, "lng": 12.2770730028, "artdtsch": "Stiel-Eiche", "artbot": "Quercus robur", "gattungdeutsch": "Quercus", "strname": "Lyoner Straße", "pflanzjahr": 2019, "standalter": 5, "bezirk": "Schönau", "standortnr": "76335", "wassermenge": 100, "wassersumme": 400, "anzahlg": 4 }, "geometry": { "type": "Point", "coordinates": [ 12.2770730028, 51.327305520499998 ] } },
{ "type": "Feature", "properties": { "id": "id-6991", "lat": 51.310441058099997, "lng": 12.3692427982, "artdtsch": "Stadt-Linde", "artbot": "Tilia cordata 'Greenspire'", "gattungdeutsch": "Tilia", "strname": "Windscheidstraße", "pflanzjahr": 1998, "standalter": 26, "bezirk": "Connewitz", "standortnr": "42621", "wassermenge": 100, "wassersumme": 100, "anzahlg": 1 }, "geometry": { "type": "Point", "coordinates": [ 12.3692427982, 51.310441058099997 ] } },
{ "type": "Feature", "properties": { "id": "8111", "lat": 51.320626283899998, "lng": 12.2546363445, "artdtsch": "Silber-Linde", "artbot": "Tilia tomentosa", "gattungdeutsch": "Tilia", "strname": "Park Miltitz", "pflanzjahr": 2020, "standalter": 4, "bezirk": "Miltitz", "standortnr": "G52275", "wassermenge": 50, "wassersumme": 50, "anzahlg": 1 }, "geometry": { "type": "Point", "coordinates": [ 12.2546363445, 51.320626283899998 ] } },
{ "type": "Feature", "properties": { "id": "id-55633", "lat": 51.342171381299998, "lng": 12.4058412888, "artdtsch": "Nelken-Kirsche", "artbot": "Prunus serrulata 'Kanzan'", "gattungdeutsch": "Prunus", "strname": "Hermann-Liebmann-Straße", "pflanzjahr": 2011, "standalter": 13, "bezirk": "Neustadt-Neuschönefeld", "standortnr": "71315", "wassermenge": 40, "wassersumme": 640, "anzahlg": 16 }, "geometry": { "type": "Point", "coordinates": [ 12.4058412888, 51.342171381299998 ] } },
{ "type": "Feature", "properties": { "id": "id-32710", "lat": 51.360743221100002, "lng": 12.391930062, "artdtsch": "Stadt-Linde", "artbot": "Tilia cordata 'Greenspire'", "gattungdeutsch": "Tilia", "strname": "Dessauer Straße", "pflanzjahr": 2016, "standalter": 8, "bezirk": "Eutritzsch", "standortnr": "3400", "wassermenge": 9, "wassersumme": 17, "anzahlg": 2 }, "geometry": { "type": "Point", "coordinates": [ 12.391930062, 51.360743221100002 ] } },
{ "type": "Feature", "properties": { "id": "15966", "lat": 51.320324044499998, "lng": 12.255129655499999, "artdtsch": "Spitz-Ahorn", "artbot": "Acer platanoides", "gattungdeutsch": "Acer", "strname": "Auenweg", "pflanzjahr": 2020, "standalter": 4, "bezirk": "Miltitz", "standortnr": "51965", "wassermenge": 100, "wassersumme": 680, "anzahlg": 11 }, "geometry": { "type": "Point", "coordinates": [ 12.255129655499999, 51.320324044499998 ] } },
{ "type": "Feature", "properties": { "id": "8627", "lat": 51.306997668299999, "lng": 12.2927172872, "artdtsch": "Japanischer Schnurbaum", "artbot": "Sophora japonica", "gattungdeutsch": "Sophora", "strname": "WG Neubauernsiedlung-Grünverbindung zwischen Rapsweg und Neubauernstraße (3.BA)", "pflanzjahr": 2012, "standalter": 12, "bezirk": "Großzschocher", "standortnr": "G25822", "wassermenge": 80, "wassersumme": 80, "anzahlg": 1 }, "geometry": { "type": "Point", "coordinates": [ 12.2927172872, 51.306997668299999 ] } },
{ "type": "Feature", "properties": { "id": "7641", "lat": 51.352275666700002, "lng": 12.369738679399999, "artdtsch": "Holländische Linde", "artbot": "Tilia x vulgaris", "gattungdeutsch": "Tilia", "strname": "Kickerlingsberg/Springerstraße", "pflanzjahr": 2011, "standalter": 13, "bezirk": "Zentrum-Nordwest", "standortnr": "G2023", "wassermenge": 18, "wassersumme": 76, "anzahlg": 6 }, "geometry": { "type": "Point", "coordinates": [ 12.369738679399999, 51.352275666700002 ] } },
{ "type": "Feature", "properties": { "id": "id-60003", "lat": 51.316842862599998, "lng": 12.2657945241, "artdtsch": "Herbst-Flammen-Ahorn", "artbot": "Acer x  freemanii 'Autumn Blaze'", "gattungdeutsch": "Acer", "strname": "Lützner Straße", "pflanzjahr": 2018, "standalter": 6, "bezirk": "Grünau-Nord", "standortnr": "75486", "wassermenge": 250, "wassersumme": 700, "anzahlg": 3 }, "geometry": { "type": "Point", "coordinates": [ 12.2657945241, 51.316842862599998 ] } },
{ "type": "Feature", "properties": { "id": "15794", "lat": 51.320443715000003, "lng": 12.283846876, "artdtsch": "Stadt-Linde", "artbot": "Tilia cordata 'Greenspire'", "gattungdeutsch": "Tilia", "strname": "Parkplatz 6201", "pflanzjahr": 2023, "standalter": 1, "bezirk": "Grünau-Mitte", "standortnr": "125960", "wassermenge": 100, "wassersumme": 200, "anzahlg": 2 }, "geometry": { "type": "Point", "coordinates": [ 12.283846876, 51.320443715 ] } },
{ "type": "Feature", "properties": { "id": "11881", "lat": 51.322198375799999, "lng": 12.3213266106, "artdtsch": "Süßkirsche 'Burlat'", "artbot": "Prunus avium 'Burlat'", "gattungdeutsch": "Prunus", "strname": "Gleis-Grün-Zug Bahnhof Plagwitz", "pflanzjahr": 2016, "standalter": 8, "bezirk": "Plagwitz", "standortnr": "G42184", "wassermenge": 150, "wassersumme": 450, "anzahlg": 4 }, "geometry": { "type": "Point", "coordinates": [ 12.3213266106, 51.322198375799999 ] } },
{ "type": "Feature", "properties": { "id": "7545", "lat": 51.384266827799998, "lng": 12.3156664732, "artdtsch": "Fächerblattbaum", "artbot": "Ginkgo biloba", "gattungdeutsch": "Ginkgo", "strname": "Grünfläche an der Pater-Gordian-Straße", "pflanzjahr": 2018, "standalter": 6, "bezirk": "Wahren", "standortnr": "G45953", "wassermenge": 10, "wassersumme": 10, "anzahlg": 1 }, "geometry": { "type": "Point", "coordinates": [ 12.3156664732, 51.384266827799998 ] } },
{ "type": "Feature", "properties": { "id": "id-4728", "lat": 51.321710469700001, "lng": 12.275997694100001, "artdtsch": "Zerr-Eiche", "artbot": "Quercus cerris", "gattungdeutsch": "Quercus", "strname": "Kiewer Straße", "pflanzjahr": 2021, "standalter": 3, "bezirk": "Grünau-Nord", "standortnr": "47493", "wassermenge": 150, "wassersumme": 550, "anzahlg": 5 }, "geometry": { "type": "Point", "coordinates": [ 12.275997694100001, 51.321710469700001 ] } },
{ "type": "Feature", "properties": { "id": "id-58007", "lat": 51.323255220100002, "lng": 12.3244778414, "artdtsch": "Hainbuche", "artbot": "Carpinus betulus", "gattungdeutsch": "Carpinus", "strname": "Weg 5202", "pflanzjahr": 2013, "standalter": 11, "bezirk": "Plagwitz", "standortnr": "73658", "wassermenge": 100, "wassersumme": 585, "anzahlg": 9 }, "geometry": { "type": "Point", "coordinates": [ 12.3244778414, 51.323255220100002 ] } },
{ "type": "Feature", "properties": { "id": "94866", "lat": 51.322658845, "lng": 12.3215374773, "artdtsch": "Walnuss", "artbot": "Juglans regia", "gattungdeutsch": "Juglans", "strname": "Gleis-Grün-Zug Bahnhof Plagwitz", "pflanzjahr": 2016, "standalter": 8, "bezirk": "Plagwitz", "standortnr": "G42209", "wassermenge": 150, "wassersumme": 650, "anzahlg": 6 }, "geometry": { "type": "Point", "coordinates": [ 12.3215374773, 51.322658845 ] } },
{ "type": "Feature", "properties": { "id": "3265", "lat": 51.323941988100003, "lng": 12.2925635018, "artdtsch": "Ess-Kastanie", "artbot": "Castanea sativa", "gattungdeutsch": "Castanea", "strname": "Parkplatz 6104", "pflanzjahr": 2021, "standalter": 3, "bezirk": "Grünau-Ost", "standortnr": "53309", "wassermenge": 100, "wassersumme": 100, "anzahlg": 1 }, "geometry": { "type": "Point", "coordinates": [ 12.2925635018, 51.323941988100003 ] } },
{ "type": "Feature", "properties": { "id": "11879", "lat": 51.32214793, "lng": 12.321358546600001, "artdtsch": "Süßkirsche 'Hedelfinger Riesenkirsche'", "artbot": "Prunus avium 'Hedelfinger Riesenkirsche'", "gattungdeutsch": "Prunus", "strname": "Gleis-Grün-Zug Bahnhof Plagwitz", "pflanzjahr": 2016, "standalter": 8, "bezirk": "Plagwitz", "standortnr": "G42182", "wassermenge": 150, "wassersumme": 550, "anzahlg": 5 }, "geometry": { "type": "Point", "coordinates": [ 12.321358546600001, 51.32214793 ] } },
{ "type": "Feature", "properties": { "id": "id-60300", "lat": 51.3271600144, "lng": 12.275879463200001, "artdtsch": "Stiel-Eiche", "artbot": "Quercus robur", "gattungdeutsch": "Quercus", "strname": "Lyoner Straße", "pflanzjahr": 2019, "standalter": 5, "bezirk": "Schönau", "standortnr": "76328", "wassermenge": 100, "wassersumme": 600, "anzahlg": 6 }, "geometry": { "type": "Point", "coordinates": [ 12.275879463200001, 51.3271600144 ] } },
{ "type": "Feature", "properties": { "id": "16755", "lat": 51.340743054199997, "lng": 12.313493663599999, "artdtsch": "Brabanter Silber-Linde", "artbot": "Tilia tomentosa 'Brabant'", "gattungdeutsch": "Tilia", "strname": "Merseburger Straße", "pflanzjahr": 2024, "standalter": 0, "bezirk": "Leutzsch", "standortnr": "43677", "wassermenge": 10, "wassersumme": 10, "anzahlg": 1 }, "geometry": { "type": "Point", "coordinates": [ 12.313493663599999, 51.340743054199997 ] } },
{ "type": "Feature", "properties": { "id": "id-31835", "lat": 51.351965981, "lng": 12.3747026105, "artdtsch": "Gefülltblühende Rosskastanie", "artbot": "Aesculus hippocastanum 'Baumannii'", "gattungdeutsch": "Aesculus", "strname": "Nordplatz", "pflanzjahr": 2015, "standalter": 9, "bezirk": "Zentrum-Nord", "standortnr": "53479", "wassermenge": 5, "wassersumme": 5, "anzahlg": 1 }, "geometry": { "type": "Point", "coordinates": [ 12.3747026105, 51.351965981 ] } },
{ "type": "Feature", "properties": { "id": "id-29919", "lat": 51.347325869800002, "lng": 12.3973814549, "artdtsch": "Robinie 'Sandraudiga'", "artbot": "Robinia pseudoacacia 'Sandraudiga'", "gattungdeutsch": "Robinia", "strname": "Rosa-Luxemburg-Straße", "pflanzjahr": 2018, "standalter": 6, "bezirk": "Neustadt-Neuschönefeld", "standortnr": "9170", "wassermenge": 20, "wassersumme": 80, "anzahlg": 6 }, "geometry": { "type": "Point", "coordinates": [ 12.3973814549, 51.347325869800002 ] } },
{ "type": "Feature", "properties": { "id": "id-33143", "lat": 51.361226761899999, "lng": 12.3825963914, "artdtsch": "Stadt-Linde", "artbot": "Tilia cordata 'Greenspire'", "gattungdeutsch": "Tilia", "strname": "Wilhelminenstraße", "pflanzjahr": 2013, "standalter": 11, "bezirk": "Eutritzsch", "standortnr": "4031", "wassermenge": 10, "wassersumme": 30, "anzahlg": 3 }, "geometry": { "type": "Point", "coordinates": [ 12.3825963914, 51.361226761899999 ] } },
{ "type": "Feature", "properties": { "id": "3317", "lat": 51.3253937319, "lng": 12.2737638683, "artdtsch": "Zerr-Eiche", "artbot": "Quercus cerris", "gattungdeutsch": "Quercus", "strname": "Kiewer Straße", "pflanzjahr": 2021, "standalter": 3, "bezirk": "Grünau-Nord", "standortnr": "85404", "wassermenge": 100, "wassersumme": 300, "anzahlg": 3 }, "geometry": { "type": "Point", "coordinates": [ 12.2737638683, 51.3253937319 ] } },
{ "type": "Feature", "properties": { "id": "11542", "lat": 51.319996980100001, "lng": 12.3376469912, "artdtsch": "Platane", "artbot": "Platanus x acerifolia", "gattungdeutsch": "Platanus", "strname": "Spielplatz Oeserstraße (Mormonenkirchplatz)", "pflanzjahr": 2010, "standalter": 14, "bezirk": "Schleußig", "standortnr": "G1879", "wassermenge": 90, "wassersumme": 90, "anzahlg": 1 }, "geometry": { "type": "Point", "coordinates": [ 12.3376469912, 51.319996980100001 ] } },
{ "type": "Feature", "properties": { "id": "id-60305", "lat": 51.3272564217, "lng": 12.276721608300001, "artdtsch": "Stiel-Eiche", "artbot": "Quercus robur", "gattungdeutsch": "Quercus", "strname": "Lyoner Straße", "pflanzjahr": 2019, "standalter": 5, "bezirk": "Schönau", "standortnr": "76333", "wassermenge": 100, "wassersumme": 400, "anzahlg": 4 }, "geometry": { "type": "Point", "coordinates": [ 12.276721608300001, 51.3272564217 ] } },
{ "type": "Feature", "properties": { "id": "id-58946", "lat": 51.316950627799997, "lng": 12.2664612564, "artdtsch": "Herbst-Flammen-Ahorn", "artbot": "Acer x  freemanii 'Autumn Blaze'", "gattungdeutsch": "Acer", "strname": "Lützner Straße", "pflanzjahr": 2018, "standalter": 6, "bezirk": "Grünau-Nord", "standortnr": "75485", "wassermenge": 250, "wassersumme": 750, "anzahlg": 3 }, "geometry": { "type": "Point", "coordinates": [ 12.2664612564, 51.316950627799997 ] } },
{ "type": "Feature", "properties": { "id": "294", "lat": 51.354739231700002, "lng": 12.3751011884, "artdtsch": "Apfel-Dorn", "artbot": "Crataegus x lavallei", "gattungdeutsch": "Crataegus", "strname": "Balzacstraße", "pflanzjahr": 2020, "standalter": 4, "bezirk": "Zentrum-Nord", "standortnr": "53838", "wassermenge": 15, "wassersumme": 35, "anzahlg": 4 }, "geometry": { "type": "Point", "coordinates": [ 12.3751011884, 51.354739231700002 ] } },
{ "type": "Feature", "properties": { "id": "15803", "lat": 51.320188302799998, "lng": 12.284104427400001, "artdtsch": "Stadt-Linde", "artbot": "Tilia cordata 'Greenspire'", "gattungdeutsch": "Tilia", "strname": "Heilbronner Straße", "pflanzjahr": 2023, "standalter": 1, "bezirk": "Grünau-Mitte", "standortnr": "125967", "wassermenge": 100, "wassersumme": 400, "anzahlg": 4 }, "geometry": { "type": "Point", "coordinates": [ 12.284104427400001, 51.320188302799998 ] } },
{ "type": "Feature", "properties": { "id": "11885", "lat": 51.321659644299999, "lng": 12.320934425000001, "artdtsch": "Ess-Kastanie", "artbot": "Castanea sativa", "gattungdeutsch": "Castanea", "strname": "Gleis-Grün-Zug Bahnhof Plagwitz", "pflanzjahr": 2020, "standalter": 4, "bezirk": "Plagwitz", "standortnr": "G42192", "wassermenge": 150, "wassersumme": 500, "anzahlg": 5 }, "geometry": { "type": "Point", "coordinates": [ 12.320934425, 51.321659644299999 ] } },
{ "type": "Feature", "properties": { "id": "id-30646", "lat": 51.341794455100001, "lng": 12.4059717183, "artdtsch": "Kaiser-Linde", "artbot": "Tilia x vulgaris 'Pallida'", "gattungdeutsch": "Tilia", "strname": "Hermann-Liebmann-Straße", "pflanzjahr": 2011, "standalter": 13, "bezirk": "Neustadt-Neuschönefeld", "standortnr": "9042", "wassermenge": 40, "wassersumme": 640, "anzahlg": 16 }, "geometry": { "type": "Point", "coordinates": [ 12.4059717183, 51.341794455100001 ] } },
{ "type": "Feature", "properties": { "id": "id-458", "lat": 51.268314747200002, "lng": 12.2931307798, "artdtsch": "Rotblühende Rosskastanie 'Briotii'", "artbot": "Aesculus x carnea 'Briotii'", "gattungdeutsch": "Aesculus", "strname": "Am Klucksgraben", "pflanzjahr": 1999, "standalter": 25, "bezirk": "Knautkleeberg-Knauthain", "standortnr": "51674", "wassermenge": 60, "wassersumme": 1705, "anzahlg": 29 }, "geometry": { "type": "Point", "coordinates": [ 12.2931307798, 51.268314747200002 ] } },
{ "type": "Feature", "properties": { "id": "id-10249", "lat": 51.329522208999997, "lng": 12.368524302300001, "artdtsch": "Platane", "artbot": "Platanus x acerifolia", "gattungdeutsch": "Platanus", "strname": "Grassistraße", "pflanzjahr": 2017, "standalter": 7, "bezirk": "Zentrum-Süd", "standortnr": "37009", "wassermenge": 200, "wassersumme": 350, "anzahlg": 2 }, "geometry": { "type": "Point", "coordinates": [ 12.368524302300001, 51.329522209 ] } },
{ "type": "Feature", "properties": { "id": "id-28474", "lat": 51.334180119499997, "lng": 12.4020692731, "artdtsch": "Berg-Ahorn", "artbot": "Acer pseudoplatanus", "gattungdeutsch": "Acer", "strname": "Reichpietschstraße", "pflanzjahr": 1960, "standalter": 64, "bezirk": "Reudnitz-Thonberg", "standortnr": "22204", "wassermenge": 10, "wassersumme": 160, "anzahlg": 31 }, "geometry": { "type": "Point", "coordinates": [ 12.4020692731, 51.334180119499997 ] } },
{ "type": "Feature", "properties": { "id": "id-2041", "lat": 51.320311904199997, "lng": 12.255014688899999, "artdtsch": "Spitz-Ahorn", "artbot": "Acer platanoides", "gattungdeutsch": "Acer", "strname": "Auenweg", "pflanzjahr": 2012, "standalter": 12, "bezirk": "Miltitz", "standortnr": "51966", "wassermenge": 125, "wassersumme": 1235, "anzahlg": 12 }, "geometry": { "type": "Point", "coordinates": [ 12.255014688899999, 51.320311904199997 ] } },
{ "type": "Feature", "properties": { "id": "id-4758", "lat": 51.323858183399999, "lng": 12.2747992133, "artdtsch": "Straßen-Esche", "artbot": "Fraxinus excelsior 'Westhof´s Glorie'", "gattungdeutsch": "Fraxinus", "strname": "Kiewer Straße", "pflanzjahr": 2000, "standalter": 24, "bezirk": "Schönau", "standortnr": "47513", "wassermenge": 250, "wassersumme": 250, "anzahlg": 1 }, "geometry": { "type": "Point", "coordinates": [ 12.2747992133, 51.323858183399999 ] } },
{ "type": "Feature", "properties": { "id": "id-8978", "lat": 51.326939158000002, "lng": 12.3454909239, "artdtsch": "Baumhasel", "artbot": "Corylus colurna", "gattungdeutsch": "Corylus", "strname": "Könneritzstraße", "pflanzjahr": 1985, "standalter": 39, "bezirk": "Schleußig", "standortnr": "39575", "wassermenge": 23, "wassersumme": 1686, "anzahlg": 100 }, "geometry": { "type": "Point", "coordinates": [ 12.3454909239, 51.326939158 ] } },
{ "type": "Feature", "properties": { "id": "id-25296", "lat": 51.315153479899998, "lng": 12.4200224756, "artdtsch": "Kaiser-Linde", "artbot": "Tilia x vulgaris 'Pallida'", "gattungdeutsch": "Tilia", "strname": "Naunhofer Straße", "pflanzjahr": 2014, "standalter": 10, "bezirk": "Stötteritz", "standortnr": "24386", "wassermenge": 50, "wassersumme": 50, "anzahlg": 1 }, "geometry": { "type": "Point", "coordinates": [ 12.4200224756, 51.315153479899998 ] } },
{ "type": "Feature", "properties": { "id": "5870", "lat": 51.267369961699998, "lng": 12.2912331686, "artdtsch": "Säulen-Ahorn", "artbot": "Acer platanoides 'Columnare'", "gattungdeutsch": "Acer", "strname": "Holunderweg", "pflanzjahr": 2016, "standalter": 8, "bezirk": "Knautkleeberg-Knauthain", "standortnr": "75047", "wassermenge": 30, "wassersumme": 30, "anzahlg": 1 }, "geometry": { "type": "Point", "coordinates": [ 12.2912331686, 51.267369961699998 ] } },
{ "type": "Feature", "properties": { "id": "id-60104", "lat": 51.313301548699997, "lng": 12.292356507199999, "artdtsch": "Platane", "artbot": "Platanus x acerifolia", "gattungdeutsch": "Platanus", "strname": "Ratzelstraße", "pflanzjahr": 2019, "standalter": 5, "bezirk": "Grünau-Siedlung", "standortnr": "76220", "wassermenge": 150, "wassersumme": 400, "anzahlg": 3 }, "geometry": { "type": "Point", "coordinates": [ 12.292356507199999, 51.313301548699997 ] } },
{ "type": "Feature", "properties": { "id": "id-27708", "lat": 51.3329835133, "lng": 12.3731106571, "artdtsch": "Platane", "artbot": "Platanus x acerifolia", "gattungdeutsch": "Platanus", "strname": "Straße des 17. Juni", "pflanzjahr": 2002, "standalter": 22, "bezirk": "Zentrum-Süd", "standortnr": "35220", "wassermenge": 20, "wassersumme": 20, "anzahlg": 1 }, "geometry": { "type": "Point", "coordinates": [ 12.3731106571, 51.3329835133 ] } },
{ "type": "Feature", "properties": { "id": "16816", "lat": 51.331714435199999, "lng": 12.374200227299999, "artdtsch": "Winter-Linde 'Rancho'", "artbot": "Tilia cordata 'Rancho'", "gattungdeutsch": "Tilia", "strname": "Emilienstraße", "pflanzjahr": 2023, "standalter": 1, "bezirk": "Zentrum-Süd", "standortnr": "134114", "wassermenge": 45, "wassersumme": 65, "anzahlg": 2 }, "geometry": { "type": "Point", "coordinates": [ 12.374200227299999, 51.331714435199999 ] } },
{ "type": "Feature", "properties": { "id": "94233", "lat": 51.3293236652, "lng": 12.308460096299999, "artdtsch": "Schwedische Mehlbeere", "artbot": "Sorbus intermedia", "gattungdeutsch": "Sorbus", "strname": "Lindenauer Hafen", "pflanzjahr": 2015, "standalter": 9, "bezirk": "Schönau", "standortnr": "G20497", "wassermenge": 50, "wassersumme": 50, "anzahlg": 1 }, "geometry": { "type": "Point", "coordinates": [ 12.308460096299999, 51.3293236652 ] } },
{ "type": "Feature", "properties": { "id": "id-29921", "lat": 51.347437155999998, "lng": 12.3976781835, "artdtsch": "Robinie 'Sandraudiga'", "artbot": "Robinia pseudoacacia 'Sandraudiga'", "gattungdeutsch": "Robinia", "strname": "Rosa-Luxemburg-Straße", "pflanzjahr": 2018, "standalter": 6, "bezirk": "Neustadt-Neuschönefeld", "standortnr": "9172", "wassermenge": 20, "wassersumme": 90, "anzahlg": 8 }, "geometry": { "type": "Point", "coordinates": [ 12.3976781835, 51.347437156 ] } },
{ "type": "Feature", "properties": { "id": "id-60275", "lat": 51.3277758248, "lng": 12.2791304946, "artdtsch": "Stiel-Eiche", "artbot": "Quercus robur", "gattungdeutsch": "Quercus", "strname": "Lyoner Straße", "pflanzjahr": 2019, "standalter": 5, "bezirk": "Schönau", "standortnr": "76348", "wassermenge": 100, "wassersumme": 300, "anzahlg": 3 }, "geometry": { "type": "Point", "coordinates": [ 12.2791304946, 51.3277758248 ] } },
{ "type": "Feature", "properties": { "id": "11875", "lat": 51.322936520500001, "lng": 12.3216447406, "artdtsch": "Silber-Linde", "artbot": "Tilia tomentosa", "gattungdeutsch": "Tilia", "strname": "Gleis-Grün-Zug Bahnhof Plagwitz", "pflanzjahr": 2016, "standalter": 8, "bezirk": "Plagwitz", "standortnr": "G42166", "wassermenge": 100, "wassersumme": 250, "anzahlg": 4 }, "geometry": { "type": "Point", "coordinates": [ 12.3216447406, 51.322936520500001 ] } },
{ "type": "Feature", "properties": { "id": "id-60116", "lat": 51.3119587634, "lng": 12.2837534599, "artdtsch": "Platane", "artbot": "Platanus x acerifolia", "gattungdeutsch": "Platanus", "strname": "Ratzelstraße", "pflanzjahr": 2019, "standalter": 5, "bezirk": "Grünau-Siedlung", "standortnr": "76232", "wassermenge": 100, "wassersumme": 500, "anzahlg": 5 }, "geometry": { "type": "Point", "coordinates": [ 12.2837534599, 51.3119587634 ] } },
{ "type": "Feature", "properties": { "id": "id-30653", "lat": 51.341902643399997, "lng": 12.4059469389, "artdtsch": "Kaiser-Linde", "artbot": "Tilia x vulgaris 'Pallida'", "gattungdeutsch": "Tilia", "strname": "Hermann-Liebmann-Straße", "pflanzjahr": 2011, "standalter": 13, "bezirk": "Neustadt-Neuschönefeld", "standortnr": "9044", "wassermenge": 40, "wassersumme": 680, "anzahlg": 17 }, "geometry": { "type": "Point", "coordinates": [ 12.4059469389, 51.341902643399997 ] } },
{ "type": "Feature", "properties": { "id": "16758", "lat": 51.340414810299997, "lng": 12.315240080700001, "artdtsch": "Brabanter Silber-Linde", "artbot": "Tilia tomentosa 'Brabant'", "gattungdeutsch": "Tilia", "strname": "Merseburger Straße", "pflanzjahr": 2024, "standalter": 0, "bezirk": "Altlindenau", "standortnr": "43717", "wassermenge": 30, "wassersumme": 120, "anzahlg": 4 }, "geometry": { "type": "Point", "coordinates": [ 12.315240080700001, 51.340414810299997 ] } },
{ "type": "Feature", "properties": { "id": "97041", "lat": 51.325512861, "lng": 12.2896329384, "artdtsch": "Stiel-Eiche", "artbot": "Quercus robur", "gattungdeutsch": "Quercus", "strname": "WG Grünau WK 5.1-Garskestraße/Lützner Straße/Schönauer Straße", "pflanzjahr": 2020, "standalter": 4, "bezirk": "Schönau", "standortnr": "78017", "wassermenge": 100, "wassersumme": 100, "anzahlg": 1 }, "geometry": { "type": "Point", "coordinates": [ 12.2896329384, 51.325512861 ] } },
{ "type": "Feature", "properties": { "id": "id-57799", "lat": 51.3258980166, "lng": 12.276698046, "artdtsch": "Nelken-Kirsche", "artbot": "Prunus serrulata 'Kanzan'", "gattungdeutsch": "Prunus", "strname": "Mühlhäuser Ring", "pflanzjahr": 2014, "standalter": 10, "bezirk": "Schönau", "standortnr": "74222", "wassermenge": 30, "wassersumme": 385, "anzahlg": 20 }, "geometry": { "type": "Point", "coordinates": [ 12.276698046, 51.3258980166 ] } },
{ "type": "Feature", "properties": { "id": "id-60290", "lat": 51.327038956800003, "lng": 12.274156615500001, "artdtsch": "Stiel-Eiche", "artbot": "Quercus robur", "gattungdeutsch": "Quercus", "strname": "Lyoner Straße", "pflanzjahr": 2019, "standalter": 5, "bezirk": "Schönau", "standortnr": "76318", "wassermenge": 100, "wassersumme": 600, "anzahlg": 6 }, "geometry": { "type": "Point", "coordinates": [ 12.274156615500001, 51.327038956800003 ] } },
{ "type": "Feature", "properties": { "id": "102043", "lat": 51.322003015999996, "lng": 12.3209451246, "artdtsch": "Haus-Apfel 'Topaz'", "artbot": "Malus domestica 'Topaz'", "gattungdeutsch": "Malus", "strname": "Gleis-Grün-Zug Bahnhof Plagwitz", "pflanzjahr": 2020, "standalter": 4, "bezirk": "Plagwitz", "standortnr": "G42202", "wassermenge": 150, "wassersumme": 500, "anzahlg": 5 }, "geometry": { "type": "Point", "coordinates": [ 12.3209451246, 51.322003016 ] } },
{ "type": "Feature", "properties": { "id": "id-55863", "lat": 51.343179866699998, "lng": 12.3174170748, "artdtsch": "Winter-Linde 'Rancho'", "artbot": "Tilia cordata 'Rancho'", "gattungdeutsch": "Tilia", "strname": "Rosenmüllerstraße", "pflanzjahr": 2011, "standalter": 13, "bezirk": "Leutzsch", "standortnr": "71509", "wassermenge": 25, "wassersumme": 25, "anzahlg": 1 }, "geometry": { "type": "Point", "coordinates": [ 12.3174170748, 51.343179866699998 ] } },
{ "type": "Feature", "properties": { "id": "id-60103", "lat": 51.313309992800001, "lng": 12.2925154553, "artdtsch": "Platane", "artbot": "Platanus x acerifolia", "gattungdeutsch": "Platanus", "strname": "Ratzelstraße", "pflanzjahr": 2019, "standalter": 5, "bezirk": "Grünau-Siedlung", "standortnr": "76219", "wassermenge": 150, "wassersumme": 450, "anzahlg": 3 }, "geometry": { "type": "Point", "coordinates": [ 12.2925154553, 51.313309992800001 ] } },
{ "type": "Feature", "properties": { "id": "9094", "lat": 51.3146315085, "lng": 12.328137956000001, "artdtsch": "Zier-Apfel 'Hopa'", "artbot": "Malus 'Hopa'", "gattungdeutsch": "Malus", "strname": "Volkspark Kleinzschocher", "pflanzjahr": 2010, "standalter": 14, "bezirk": "Kleinzschocher", "standortnr": "G1139", "wassermenge": 30, "wassersumme": 30, "anzahlg": 1 }, "geometry": { "type": "Point", "coordinates": [ 12.328137956, 51.3146315085 ] } },
{ "type": "Feature", "properties": { "id": "13678", "lat": 51.320920783799998, "lng": 12.254783247400001, "artdtsch": "Silber-Linde", "artbot": "Tilia tomentosa", "gattungdeutsch": "Tilia", "strname": "Park Miltitz", "pflanzjahr": 2020, "standalter": 4, "bezirk": "Miltitz", "standortnr": "G49707", "wassermenge": 100, "wassersumme": 100, "anzahlg": 1 }, "geometry": { "type": "Point", "coordinates": [ 12.254783247400001, 51.320920783799998 ] } },
{ "type": "Feature", "properties": { "id": "id-60306", "lat": 51.327333207599999, "lng": 12.277238608699999, "artdtsch": "Stiel-Eiche", "artbot": "Quercus robur", "gattungdeutsch": "Quercus", "strname": "Lyoner Straße", "pflanzjahr": 2019, "standalter": 5, "bezirk": "Schönau", "standortnr": "76336", "wassermenge": 100, "wassersumme": 400, "anzahlg": 4 }, "geometry": { "type": "Point", "coordinates": [ 12.277238608699999, 51.327333207599999 ] } },
{ "type": "Feature", "properties": { "id": "id-1990", "lat": 51.320271207099999, "lng": 12.254679231300001, "artdtsch": "Spitz-Ahorn", "artbot": "Acer platanoides", "gattungdeutsch": "Acer", "strname": "Auenweg", "pflanzjahr": 2012, "standalter": 12, "bezirk": "Miltitz", "standortnr": "51968", "wassermenge": 50, "wassersumme": 100, "anzahlg": 2 }, "geometry": { "type": "Point", "coordinates": [ 12.254679231300001, 51.320271207099999 ] } },
{ "type": "Feature", "properties": { "id": "14390", "lat": 51.329254413500003, "lng": 12.3087966494, "artdtsch": "Schwedische Mehlbeere", "artbot": "Sorbus intermedia", "gattungdeutsch": "Sorbus", "strname": "Lindenauer Hafen", "pflanzjahr": 2020, "standalter": 4, "bezirk": "Schönau", "standortnr": "G20485", "wassermenge": 50, "wassersumme": 50, "anzahlg": 1 }, "geometry": { "type": "Point", "coordinates": [ 12.3087966494, 51.329254413500003 ] } },
{ "type": "Feature", "properties": { "id": "id-27692", "lat": 51.332829625000002, "lng": 12.373483417899999, "artdtsch": "Ungarische Eiche", "artbot": "Quercus frainetto", "gattungdeutsch": "Quercus", "strname": "Peterssteinweg", "pflanzjahr": 2015, "standalter": 9, "bezirk": "Zentrum-Süd", "standortnr": "38860", "wassermenge": 50, "wassersumme": 315, "anzahlg": 7 }, "geometry": { "type": "Point", "coordinates": [ 12.373483417899999, 51.332829625 ] } },
{ "type": "Feature", "properties": { "id": "90149", "lat": 51.329300007500002, "lng": 12.3084052049, "artdtsch": "Schwedische Mehlbeere", "artbot": "Sorbus intermedia", "gattungdeutsch": "Sorbus", "strname": "Lindenauer Hafen", "pflanzjahr": 2015, "standalter": 9, "bezirk": "Schönau", "standortnr": "G20496", "wassermenge": 50, "wassersumme": 50, "anzahlg": 1 }, "geometry": { "type": "Point", "coordinates": [ 12.3084052049, 51.329300007500002 ] } },
{ "type": "Feature", "properties": { "id": "15799", "lat": 51.320671699499997, "lng": 12.285266846900001, "artdtsch": "Hopfenbuche", "artbot": "Ostrya carpinifolia", "gattungdeutsch": "Ostrya", "strname": "Ulmer Straße", "pflanzjahr": 2023, "standalter": 1, "bezirk": "Grünau-Mitte", "standortnr": "35046", "wassermenge": 100, "wassersumme": 200, "anzahlg": 2 }, "geometry": { "type": "Point", "coordinates": [ 12.285266846900001, 51.320671699499997 ] } },
{ "type": "Feature", "properties": { "id": "id-60293", "lat": 51.327063901599999, "lng": 12.2746677839, "artdtsch": "Stiel-Eiche", "artbot": "Quercus robur", "gattungdeutsch": "Quercus", "strname": "Lyoner Straße", "pflanzjahr": 2019, "standalter": 5, "bezirk": "Schönau", "standortnr": "76321", "wassermenge": 100, "wassersumme": 400, "anzahlg": 4 }, "geometry": { "type": "Point", "coordinates": [ 12.2746677839, 51.327063901599999 ] } },
{ "type": "Feature", "properties": { "id": "id-25294", "lat": 51.315209542700003, "lng": 12.419934079300001, "artdtsch": "Kaiser-Linde", "artbot": "Tilia x vulgaris 'Pallida'", "gattungdeutsch": "Tilia", "strname": "Naunhofer Straße", "pflanzjahr": 2014, "standalter": 10, "bezirk": "Stötteritz", "standortnr": "24385", "wassermenge": 50, "wassersumme": 50, "anzahlg": 1 }, "geometry": { "type": "Point", "coordinates": [ 12.419934079300001, 51.315209542700003 ] } },
{ "type": "Feature", "properties": { "id": "6228", "lat": 51.346803146100001, "lng": 12.314337332899999, "artdtsch": "Säulen-Hainbuche 'Frans Fontaine'", "artbot": "Carpinus betulus 'Frans Fontaine'", "gattungdeutsch": "Carpinus", "strname": "Sattelhofstraße", "pflanzjahr": 2023, "standalter": 1, "bezirk": "Leutzsch", "standortnr": "124989", "wassermenge": 15, "wassersumme": 15, "anzahlg": 1 }, "geometry": { "type": "Point", "coordinates": [ 12.314337332899999, 51.346803146100001 ] } },
{ "type": "Feature", "properties": { "id": "id-1996", "lat": 51.320204204, "lng": 12.2542844859, "artdtsch": "Spitz-Ahorn", "artbot": "Acer platanoides", "gattungdeutsch": "Acer", "strname": "Auenweg", "pflanzjahr": 2012, "standalter": 12, "bezirk": "Miltitz", "standortnr": "51971", "wassermenge": 50, "wassersumme": 50, "anzahlg": 1 }, "geometry": { "type": "Point", "coordinates": [ 12.2542844859, 51.320204204 ] } },
{ "type": "Feature", "properties": { "id": "id-57974", "lat": 51.323367238499998, "lng": 12.323519753299999, "artdtsch": "Feld-Ahorn", "artbot": "Acer campestre", "gattungdeutsch": "Acer", "strname": "Weg 5202", "pflanzjahr": 2013, "standalter": 11, "bezirk": "Plagwitz", "standortnr": "73662", "wassermenge": 100, "wassersumme": 735, "anzahlg": 10 }, "geometry": { "type": "Point", "coordinates": [ 12.323519753299999, 51.323367238499998 ] } },
{ "type": "Feature", "properties": { "id": "3316", "lat": 51.325347345399997, "lng": 12.273976039200001, "artdtsch": "Zerr-Eiche", "artbot": "Quercus cerris", "gattungdeutsch": "Quercus", "strname": "Kiewer Straße", "pflanzjahr": 2021, "standalter": 3, "bezirk": "Schönau", "standortnr": "47565", "wassermenge": 100, "wassersumme": 500, "anzahlg": 5 }, "geometry": { "type": "Point", "coordinates": [ 12.273976039200001, 51.325347345399997 ] } },
{ "type": "Feature", "properties": { "id": "1383", "lat": 51.347381778600003, "lng": 12.3978134361, "artdtsch": "Säulen-Hainbuche 'Frans Fontaine'", "artbot": "Carpinus betulus 'Frans Fontaine'", "gattungdeutsch": "Carpinus", "strname": "Mariannenstraße", "pflanzjahr": 2020, "standalter": 4, "bezirk": "Neustadt-Neuschönefeld", "standortnr": "8211", "wassermenge": 20, "wassersumme": 80, "anzahlg": 7 }, "geometry": { "type": "Point", "coordinates": [ 12.3978134361, 51.347381778600003 ] } },
{ "type": "Feature", "properties": { "id": "id-60285", "lat": 51.3274140507, "lng": 12.277709718300001, "artdtsch": "Stiel-Eiche", "artbot": "Quercus robur", "gattungdeutsch": "Quercus", "strname": "Lyoner Straße", "pflanzjahr": 2019, "standalter": 5, "bezirk": "Schönau", "standortnr": "76339", "wassermenge": 100, "wassersumme": 400, "anzahlg": 4 }, "geometry": { "type": "Point", "coordinates": [ 12.277709718300001, 51.3274140507 ] } },
{ "type": "Feature", "properties": { "id": "id-28432", "lat": 51.3337232664, "lng": 12.397091186100001, "artdtsch": "Gefülltblühende Rosskastanie", "artbot": "Aesculus hippocastanum 'Baumannii'", "gattungdeutsch": "Aesculus", "strname": "Johannisallee", "pflanzjahr": 2003, "standalter": 21, "bezirk": "Reudnitz-Thonberg", "standortnr": "22376", "wassermenge": 30, "wassersumme": 50, "anzahlg": 2 }, "geometry": { "type": "Point", "coordinates": [ 12.397091186100001, 51.3337232664 ] } },
{ "type": "Feature", "properties": { "id": "id-6992", "lat": 51.310375245899998, "lng": 12.3692558919, "artdtsch": "Stadt-Linde", "artbot": "Tilia cordata 'Greenspire'", "gattungdeutsch": "Tilia", "strname": "Windscheidstraße", "pflanzjahr": 1995, "standalter": 29, "bezirk": "Connewitz", "standortnr": "42622", "wassermenge": 100, "wassersumme": 100, "anzahlg": 1 }, "geometry": { "type": "Point", "coordinates": [ 12.3692558919, 51.310375245899998 ] } },
{ "type": "Feature", "properties": { "id": "9551", "lat": 51.3288050301, "lng": 12.4190562693, "artdtsch": "Strauch - Rosskastanie", "artbot": "Aesculus parviflora", "gattungdeutsch": "Aesculus", "strname": "Ostfriedhof", "pflanzjahr": 2008, "standalter": 16, "bezirk": "Anger-Crottendorf", "standortnr": "G43733", "wassermenge": 60, "wassersumme": 290, "anzahlg": 5 }, "geometry": { "type": "Point", "coordinates": [ 12.4190562693, 51.3288050301 ] } },
{ "type": "Feature", "properties": { "id": "id-60113", "lat": 51.312787540400002, "lng": 12.2879364234, "artdtsch": "Platane", "artbot": "Platanus x acerifolia", "gattungdeutsch": "Platanus", "strname": "Ratzelstraße", "pflanzjahr": 2019, "standalter": 5, "bezirk": "Grünau-Siedlung", "standortnr": "76229", "wassermenge": 100, "wassersumme": 400, "anzahlg": 4 }, "geometry": { "type": "Point", "coordinates": [ 12.2879364234, 51.312787540400002 ] } },
{ "type": "Feature", "properties": { "id": "3046", "lat": 51.338744043600002, "lng": 12.2988617246, "artdtsch": "Kaiser-Linde", "artbot": "Tilia x vulgaris 'Pallida'", "gattungdeutsch": "Tilia", "strname": "Schomburgkstraße", "pflanzjahr": 2021, "standalter": 3, "bezirk": "Neulindenau", "standortnr": "45757", "wassermenge": 100, "wassersumme": 100, "anzahlg": 1 }, "geometry": { "type": "Point", "coordinates": [ 12.2988617246, 51.338744043600002 ] } },
{ "type": "Feature", "properties": { "id": "id-60288", "lat": 51.327024352099997, "lng": 12.2738346186, "artdtsch": "Stiel-Eiche", "artbot": "Quercus robur", "gattungdeutsch": "Quercus", "strname": "Lyoner Straße", "pflanzjahr": 2019, "standalter": 5, "bezirk": "Schönau", "standortnr": "76316", "wassermenge": 100, "wassersumme": 400, "anzahlg": 4 }, "geometry": { "type": "Point", "coordinates": [ 12.2738346186, 51.327024352099997 ] } },
{ "type": "Feature", "properties": { "id": "id-60120", "lat": 51.311350413600003, "lng": 12.2806132549, "artdtsch": "Platane", "artbot": "Platanus x acerifolia", "gattungdeutsch": "Platanus", "strname": "Ratzelstraße", "pflanzjahr": 2019, "standalter": 5, "bezirk": "Grünau-Siedlung", "standortnr": "76236", "wassermenge": 100, "wassersumme": 500, "anzahlg": 5 }, "geometry": { "type": "Point", "coordinates": [ 12.2806132549, 51.311350413600003 ] } },
{ "type": "Feature", "properties": { "id": "11876", "lat": 51.322955548000003, "lng": 12.321462191, "artdtsch": "Silber-Linde", "artbot": "Tilia tomentosa", "gattungdeutsch": "Tilia", "strname": "Gleis-Grün-Zug Bahnhof Plagwitz", "pflanzjahr": 2016, "standalter": 8, "bezirk": "Plagwitz", "standortnr": "G42167", "wassermenge": 100, "wassersumme": 350, "anzahlg": 4 }, "geometry": { "type": "Point", "coordinates": [ 12.321462191, 51.322955548 ] } },
{ "type": "Feature", "properties": { "id": "id-60118", "lat": 51.311887440900001, "lng": 12.2833970309, "artdtsch": "Platane", "artbot": "Platanus x acerifolia", "gattungdeutsch": "Platanus", "strname": "Ratzelstraße", "pflanzjahr": 2019, "standalter": 5, "bezirk": "Grünau-Siedlung", "standortnr": "76234", "wassermenge": 100, "wassersumme": 500, "anzahlg": 5 }, "geometry": { "type": "Point", "coordinates": [ 12.2833970309, 51.311887440900001 ] } },
{ "type": "Feature", "properties": { "id": "3531", "lat": 51.319301419200002, "lng": 12.2844835577, "artdtsch": "Brabanter Silber-Linde", "artbot": "Tilia tomentosa 'Brabant'", "gattungdeutsch": "Tilia", "strname": "Heilbronner Straße", "pflanzjahr": 2022, "standalter": 2, "bezirk": "Grünau-Mitte", "standortnr": "87273", "wassermenge": 100, "wassersumme": 300, "anzahlg": 3 }, "geometry": { "type": "Point", "coordinates": [ 12.2844835577, 51.319301419200002 ] } },
{ "type": "Feature", "properties": { "id": "1649", "lat": 51.325465416999997, "lng": 12.2899780845, "artdtsch": "Stiel-Eiche", "artbot": "Quercus robur", "gattungdeutsch": "Quercus", "strname": "Parkplatz 6004", "pflanzjahr": 2020, "standalter": 4, "bezirk": "Schönau", "standortnr": "78002", "wassermenge": 100, "wassersumme": 300, "anzahlg": 3 }, "geometry": { "type": "Point", "coordinates": [ 12.2899780845, 51.325465417 ] } },
{ "type": "Feature", "properties": { "id": "id-58038", "lat": 51.335547534500002, "lng": 12.324787687300001, "artdtsch": "Säulen-Hainbuche 'Frans Fontaine'", "artbot": "Carpinus betulus 'Frans Fontaine'", "gattungdeutsch": "Carpinus", "strname": "Demmeringstraße", "pflanzjahr": 2013, "standalter": 11, "bezirk": "Altlindenau", "standortnr": "73678", "wassermenge": 75, "wassersumme": 285, "anzahlg": 6 }, "geometry": { "type": "Point", "coordinates": [ 12.324787687300001, 51.335547534500002 ] } },
{ "type": "Feature", "properties": { "id": "id-56920", "lat": 51.325806715799999, "lng": 12.3239585704, "artdtsch": "Zerr-Eiche", "artbot": "Quercus cerris", "gattungdeutsch": "Quercus", "strname": "Markranstädter Straße", "pflanzjahr": 2013, "standalter": 11, "bezirk": "Plagwitz", "standortnr": "73654", "wassermenge": 100, "wassersumme": 1320, "anzahlg": 15 }, "geometry": { "type": "Point", "coordinates": [ 12.3239585704, 51.325806715799999 ] } },
{ "type": "Feature", "properties": { "id": "5388", "lat": 51.335384521000002, "lng": 12.3317040645, "artdtsch": "Kaiser-Linde", "artbot": "Tilia x vulgaris 'Pallida'", "gattungdeutsch": "Tilia", "strname": "Schadowstraße", "pflanzjahr": 2022, "standalter": 2, "bezirk": "Lindenau", "standortnr": "44391", "wassermenge": 100, "wassersumme": 731, "anzahlg": 10 }, "geometry": { "type": "Point", "coordinates": [ 12.3317040645, 51.335384521 ] } },
{ "type": "Feature", "properties": { "id": "6229", "lat": 51.346654433499999, "lng": 12.314222105800001, "artdtsch": "Säulen-Hainbuche 'Frans Fontaine'", "artbot": "Carpinus betulus 'Frans Fontaine'", "gattungdeutsch": "Carpinus", "strname": "Sattelhofstraße", "pflanzjahr": 2023, "standalter": 1, "bezirk": "Leutzsch", "standortnr": "124990", "wassermenge": 15, "wassersumme": 15, "anzahlg": 1 }, "geometry": { "type": "Point", "coordinates": [ 12.314222105800001, 51.346654433499999 ] } },
{ "type": "Feature", "properties": { "id": "id-3898", "lat": 51.319497065, "lng": 12.2792954181, "artdtsch": "Rot-Esche", "artbot": "Fraxinus pennsylvanica", "gattungdeutsch": "Fraxinus", "strname": "Lützner Straße", "pflanzjahr": 2018, "standalter": 6, "bezirk": "Schönau", "standortnr": "43933", "wassermenge": 200, "wassersumme": 200, "anzahlg": 1 }, "geometry": { "type": "Point", "coordinates": [ 12.2792954181, 51.319497065 ] } },
{ "type": "Feature", "properties": { "id": "102044", "lat": 51.322231701900002, "lng": 12.3209632281, "artdtsch": "Haus-Apfel 'Jacob Lebel'", "artbot": "Malus domestica 'Jacob Lebel'", "gattungdeutsch": "Malus", "strname": "Gleis-Grün-Zug Bahnhof Plagwitz", "pflanzjahr": 2020, "standalter": 4, "bezirk": "Plagwitz", "standortnr": "G42205", "wassermenge": 150, "wassersumme": 550, "anzahlg": 5 }, "geometry": { "type": "Point", "coordinates": [ 12.3209632281, 51.322231701900002 ] } },
{ "type": "Feature", "properties": { "id": "94864", "lat": 51.321800131499998, "lng": 12.3209697277, "artdtsch": "Haus-Pflaume 'Hauszwetschge'", "artbot": "Prunus domestica 'Hauszwetschge'", "gattungdeutsch": "Prunus", "strname": "Gleis-Grün-Zug Bahnhof Plagwitz", "pflanzjahr": 2016, "standalter": 8, "bezirk": "Plagwitz", "standortnr": "G42196", "wassermenge": 150, "wassersumme": 500, "anzahlg": 5 }, "geometry": { "type": "Point", "coordinates": [ 12.3209697277, 51.321800131499998 ] } },
{ "type": "Feature", "properties": { "id": "id-60295", "lat": 51.3270829374, "lng": 12.275021819199999, "artdtsch": "Stiel-Eiche", "artbot": "Quercus robur", "gattungdeutsch": "Quercus", "strname": "Lyoner Straße", "pflanzjahr": 2019, "standalter": 5, "bezirk": "Schönau", "standortnr": "76323", "wassermenge": 100, "wassersumme": 600, "anzahlg": 6 }, "geometry": { "type": "Point", "coordinates": [ 12.275021819199999, 51.3270829374 ] } },
{ "type": "Feature", "properties": { "id": "id-60296", "lat": 51.327098501400002, "lng": 12.275180389899999, "artdtsch": "Stiel-Eiche", "artbot": "Quercus robur", "gattungdeutsch": "Quercus", "strname": "Lyoner Straße", "pflanzjahr": 2019, "standalter": 5, "bezirk": "Schönau", "standortnr": "76324", "wassermenge": 100, "wassersumme": 600, "anzahlg": 6 }, "geometry": { "type": "Point", "coordinates": [ 12.275180389899999, 51.327098501400002 ] } },
{ "type": "Feature", "properties": { "id": "16618", "lat": 51.367914734199999, "lng": 12.3714465517, "artdtsch": "Hopfenbuche", "artbot": "Ostrya carpinifolia", "gattungdeutsch": "Ostrya", "strname": "Corinthstraße", "pflanzjahr": 2024, "standalter": 0, "bezirk": "Gohlis-Mitte", "standortnr": "133801", "wassermenge": 50, "wassersumme": 100, "anzahlg": 3 }, "geometry": { "type": "Point", "coordinates": [ 12.3714465517, 51.367914734199999 ] } },
{ "type": "Feature", "properties": { "id": "3315", "lat": 51.325261924300001, "lng": 12.274011827600001, "artdtsch": "Zerr-Eiche", "artbot": "Quercus cerris", "gattungdeutsch": "Quercus", "strname": "Kiewer Straße", "pflanzjahr": 2021, "standalter": 3, "bezirk": "Grünau-Nord", "standortnr": "47564", "wassermenge": 100, "wassersumme": 500, "anzahlg": 5 }, "geometry": { "type": "Point", "coordinates": [ 12.274011827600001, 51.325261924300001 ] } },
{ "type": "Feature", "properties": { "id": "id-18196", "lat": 51.286674849800001, "lng": 12.4059923966, "artdtsch": "Stadt-Linde", "artbot": "Tilia cordata 'Greenspire'", "gattungdeutsch": "Tilia", "strname": "Leinestraße", "pflanzjahr": 2015, "standalter": 9, "bezirk": "Dölitz-Dösen", "standortnr": "34680", "wassermenge": 30, "wassersumme": 445, "anzahlg": 15 }, "geometry": { "type": "Point", "coordinates": [ 12.4059923966, 51.286674849800001 ] } },
{ "type": "Feature", "properties": { "id": "11891", "lat": 51.322987534799999, "lng": 12.321189601, "artdtsch": "Haus-Apfel  'Roter Eiserapfel'", "artbot": "Malus domestica 'Roter Eiserapfel'", "gattungdeutsch": "Malus", "strname": "Gleis-Grün-Zug Bahnhof Plagwitz", "pflanzjahr": 2016, "standalter": 8, "bezirk": "Plagwitz", "standortnr": "G42217", "wassermenge": 150, "wassersumme": 550, "anzahlg": 5 }, "geometry": { "type": "Point", "coordinates": [ 12.321189601, 51.322987534799999 ] } },
{ "type": "Feature", "properties": { "id": "3218", "lat": 51.324141284699998, "lng": 12.293770565599999, "artdtsch": "Säulen-Tulpenbaum", "artbot": "Liriodendron tulipifera 'Fastigiatum'", "gattungdeutsch": "Liriodendron", "strname": "Weißdornstraße", "pflanzjahr": 2021, "standalter": 3, "bezirk": "Grünau-Ost", "standortnr": "85562", "wassermenge": 100, "wassersumme": 100, "anzahlg": 1 }, "geometry": { "type": "Point", "coordinates": [ 12.293770565599999, 51.324141284699998 ] } },
{ "type": "Feature", "properties": { "id": "id-1994", "lat": 51.3202287262, "lng": 12.254398138199999, "artdtsch": "Spitz-Ahorn", "artbot": "Acer platanoides", "gattungdeutsch": "Acer", "strname": "Auenweg", "pflanzjahr": 2012, "standalter": 12, "bezirk": "Miltitz", "standortnr": "51970", "wassermenge": 50, "wassersumme": 100, "anzahlg": 2 }, "geometry": { "type": "Point", "coordinates": [ 12.254398138199999, 51.3202287262 ] } },
{ "type": "Feature", "properties": { "id": "2912", "lat": 51.303348561, "lng": 12.3921759471, "artdtsch": "Stadt-Linde", "artbot": "Tilia cordata 'Greenspire'", "gattungdeutsch": "Tilia", "strname": "Probstheidaer Straße", "pflanzjahr": 2021, "standalter": 3, "bezirk": "Marienbrunn", "standortnr": "71055", "wassermenge": 25, "wassersumme": 190, "anzahlg": 12 }, "geometry": { "type": "Point", "coordinates": [ 12.3921759471, 51.303348561 ] } },
{ "type": "Feature", "properties": { "id": "id-58969", "lat": 51.339609164599999, "lng": 12.3261439457, "artdtsch": "Dreilappiger Apfel", "artbot": "Eriolobus trilobatus", "gattungdeutsch": "Eriolobus", "strname": "Calvisiusstraße", "pflanzjahr": 2024, "standalter": 0, "bezirk": "Altlindenau", "standortnr": "75399", "wassermenge": 100, "wassersumme": 330, "anzahlg": 8 }, "geometry": { "type": "Point", "coordinates": [ 12.3261439457, 51.339609164599999 ] } },
{ "type": "Feature", "properties": { "id": "11882", "lat": 51.322159568700002, "lng": 12.321175426, "artdtsch": "Süßkirsche 'Große Schwarze Knorpel '", "artbot": "Prunus avium 'Große Schwarze Knorpel'", "gattungdeutsch": "Prunus", "strname": "Gleis-Grün-Zug Bahnhof Plagwitz", "pflanzjahr": 2016, "standalter": 8, "bezirk": "Plagwitz", "standortnr": "G42186", "wassermenge": 150, "wassersumme": 500, "anzahlg": 5 }, "geometry": { "type": "Point", "coordinates": [ 12.321175426, 51.322159568700002 ] } },
{ "type": "Feature", "properties": { "id": "id-8697", "lat": 51.324902286399997, "lng": 12.344417416800001, "artdtsch": "Stadt-Linde", "artbot": "Tilia cordata 'Greenspire'", "gattungdeutsch": "Tilia", "strname": "Könneritzstraße", "pflanzjahr": 2016, "standalter": 8, "bezirk": "Schleußig", "standortnr": "39535", "wassermenge": 45, "wassersumme": 45, "anzahlg": 1 }, "geometry": { "type": "Point", "coordinates": [ 12.344417416800001, 51.324902286399997 ] } },
{ "type": "Feature", "properties": { "id": "id-30047", "lat": 51.347386979, "lng": 12.3977024037, "artdtsch": "Säulen-Hainbuche 'Frans Fontaine'", "artbot": "Carpinus betulus 'Frans Fontaine'", "gattungdeutsch": "Carpinus", "strname": "Mariannenstraße", "pflanzjahr": 2020, "standalter": 4, "bezirk": "Neustadt-Neuschönefeld", "standortnr": "8210", "wassermenge": 20, "wassersumme": 80, "anzahlg": 7 }, "geometry": { "type": "Point", "coordinates": [ 12.3977024037, 51.347386979 ] } },
{ "type": "Feature", "properties": { "id": "id-60273", "lat": 51.327933069300002, "lng": 12.279599815599999, "artdtsch": "Stiel-Eiche", "artbot": "Quercus robur", "gattungdeutsch": "Quercus", "strname": "Lyoner Straße", "pflanzjahr": 2019, "standalter": 5, "bezirk": "Schönau", "standortnr": "76351", "wassermenge": 100, "wassersumme": 300, "anzahlg": 3 }, "geometry": { "type": "Point", "coordinates": [ 12.279599815599999, 51.327933069300002 ] } },
{ "type": "Feature", "properties": { "id": "3221", "lat": 51.3240948507, "lng": 12.293488103, "artdtsch": "Ess-Kastanie", "artbot": "Castanea sativa", "gattungdeutsch": "Castanea", "strname": "Parkplatz 6104", "pflanzjahr": 2021, "standalter": 3, "bezirk": "Grünau-Ost", "standortnr": "53310", "wassermenge": 100, "wassersumme": 100, "anzahlg": 1 }, "geometry": { "type": "Point", "coordinates": [ 12.293488103, 51.3240948507 ] } },
{ "type": "Feature", "properties": { "id": "3671", "lat": 51.362198960299999, "lng": 12.375111369100001, "artdtsch": "Robinie 'Semperflorens'", "artbot": "Robinia pseudoacacia 'Semperflorens'", "gattungdeutsch": "Robinia", "strname": "Blochmannstraße", "pflanzjahr": 2022, "standalter": 2, "bezirk": "Gohlis-Süd", "standortnr": "58491", "wassermenge": 30, "wassersumme": 298, "anzahlg": 12 }, "geometry": { "type": "Point", "coordinates": [ 12.375111369100001, 51.362198960299999 ] } },
{ "type": "Feature", "properties": { "id": "id-33154", "lat": 51.361250860699997, "lng": 12.383674644299999, "artdtsch": "Stadt-Linde", "artbot": "Tilia cordata 'Greenspire'", "gattungdeutsch": "Tilia", "strname": "Wilhelminenstraße", "pflanzjahr": 2013, "standalter": 11, "bezirk": "Eutritzsch", "standortnr": "4042", "wassermenge": 10, "wassersumme": 30, "anzahlg": 3 }, "geometry": { "type": "Point", "coordinates": [ 12.383674644299999, 51.361250860699997 ] } },
{ "type": "Feature", "properties": { "id": "id-31218", "lat": 51.346790331500003, "lng": 12.4083792831, "artdtsch": "Säulen-Hainbuche 'Frans Fontaine'", "artbot": "Carpinus betulus 'Frans Fontaine'", "gattungdeutsch": "Carpinus", "strname": "Mariannenstraße", "pflanzjahr": 1997, "standalter": 27, "bezirk": "Volkmarsdorf", "standortnr": "8343", "wassermenge": 20, "wassersumme": 20, "anzahlg": 1 }, "geometry": { "type": "Point", "coordinates": [ 12.4083792831, 51.346790331500003 ] } },
{ "type": "Feature", "properties": { "id": "16028", "lat": 51.323751276199999, "lng": 12.274715692499999, "artdtsch": "Zerr-Eiche", "artbot": "Quercus cerris", "gattungdeutsch": "Quercus", "strname": "Kiewer Straße", "pflanzjahr": 2020, "standalter": 4, "bezirk": "Schönau", "standortnr": "47546", "wassermenge": 150, "wassersumme": 450, "anzahlg": 4 }, "geometry": { "type": "Point", "coordinates": [ 12.274715692499999, 51.323751276199999 ] } },
{ "type": "Feature", "properties": { "id": "10398", "lat": 51.321587639400001, "lng": 12.255522689699999, "artdtsch": "Robinie", "artbot": "Robinia pseudoacacia", "gattungdeutsch": "Robinia", "strname": "Park Miltitz", "pflanzjahr": 2021, "standalter": 3, "bezirk": "Miltitz", "standortnr": "84535", "wassermenge": 60, "wassersumme": 160, "anzahlg": 3 }, "geometry": { "type": "Point", "coordinates": [ 12.255522689699999, 51.321587639400001 ] } },
{ "type": "Feature", "properties": { "id": "id-57978", "lat": 51.323436496100001, "lng": 12.3229574683, "artdtsch": "Feld-Ahorn", "artbot": "Acer campestre", "gattungdeutsch": "Acer", "strname": "Weg 5202", "pflanzjahr": 2013, "standalter": 11, "bezirk": "Plagwitz", "standortnr": "73666", "wassermenge": 100, "wassersumme": 580, "anzahlg": 8 }, "geometry": { "type": "Point", "coordinates": [ 12.3229574683, 51.323436496100001 ] } },
{ "type": "Feature", "properties": { "id": "id-35162", "lat": 51.3596213127, "lng": 12.413475628500001, "artdtsch": "Stadt-Linde", "artbot": "Tilia cordata 'Greenspire'", "gattungdeutsch": "Tilia", "strname": "Leostraße", "pflanzjahr": 2019, "standalter": 5, "bezirk": "Schönefeld-Abtnaundorf", "standortnr": "10129", "wassermenge": 60, "wassersumme": 405, "anzahlg": 9 }, "geometry": { "type": "Point", "coordinates": [ 12.413475628500001, 51.3596213127 ] } },
{ "type": "Feature", "properties": { "id": "id-4978", "lat": 51.322737766199999, "lng": 12.275475011199999, "artdtsch": "Straßen-Esche", "artbot": "Fraxinus excelsior 'Westhof´s Glorie'", "gattungdeutsch": "Fraxinus", "strname": "Kiewer Straße", "pflanzjahr": 1996, "standalter": 28, "bezirk": "Schönau", "standortnr": "47505", "wassermenge": 200, "wassersumme": 200, "anzahlg": 1 }, "geometry": { "type": "Point", "coordinates": [ 12.275475011199999, 51.322737766199999 ] } },
{ "type": "Feature", "properties": { "id": "3219", "lat": 51.3240892213, "lng": 12.2937948599, "artdtsch": "Säulen-Tulpenbaum", "artbot": "Liriodendron tulipifera 'Fastigiatum'", "gattungdeutsch": "Liriodendron", "strname": "Weißdornstraße", "pflanzjahr": 2021, "standalter": 3, "bezirk": "Grünau-Ost", "standortnr": "85563", "wassermenge": 100, "wassersumme": 100, "anzahlg": 1 }, "geometry": { "type": "Point", "coordinates": [ 12.2937948599, 51.3240892213 ] } },
{ "type": "Feature", "properties": { "id": "7453", "lat": 51.329460049799998, "lng": 12.3936530584, "artdtsch": "Sand-Birke", "artbot": "Betula pendula", "gattungdeutsch": "Betula", "strname": "Friedenspark (Neuer Johannisfriedhof)", "pflanzjahr": 2022, "standalter": 2, "bezirk": "Zentrum-Südost", "standortnr": "G3214", "wassermenge": 10, "wassersumme": 10, "anzahlg": 1 }, "geometry": { "type": "Point", "coordinates": [ 12.3936530584, 51.329460049799998 ] } },
{ "type": "Feature", "properties": { "id": "id-7086", "lat": 51.314965296700002, "lng": 12.3272050517, "artdtsch": "Säulen-Hainbuche 'Frans Fontaine'", "artbot": "Carpinus betulus 'Frans Fontaine'", "gattungdeutsch": "Carpinus", "strname": "Windorfer Straße", "pflanzjahr": 2003, "standalter": 21, "bezirk": "Kleinzschocher", "standortnr": "41126", "wassermenge": 80, "wassersumme": 80, "anzahlg": 1 }, "geometry": { "type": "Point", "coordinates": [ 12.3272050517, 51.314965296700002 ] } },
{ "type": "Feature", "properties": { "id": "90147", "lat": 51.329343107299998, "lng": 12.3083746846, "artdtsch": "Schwedische Mehlbeere", "artbot": "Sorbus intermedia", "gattungdeutsch": "Sorbus", "strname": "Lindenauer Hafen", "pflanzjahr": 2015, "standalter": 9, "bezirk": "Schönau", "standortnr": "G20494", "wassermenge": 50, "wassersumme": 50, "anzahlg": 1 }, "geometry": { "type": "Point", "coordinates": [ 12.3083746846, 51.329343107299998 ] } },
{ "type": "Feature", "properties": { "id": "id-30028", "lat": 51.347282314700003, "lng": 12.397934702200001, "artdtsch": "Säulen-Hainbuche 'Frans Fontaine'", "artbot": "Carpinus betulus 'Frans Fontaine'", "gattungdeutsch": "Carpinus", "strname": "Mariannenstraße", "pflanzjahr": 1999, "standalter": 25, "bezirk": "Neustadt-Neuschönefeld", "standortnr": "8206", "wassermenge": 10, "wassersumme": 50, "anzahlg": 5 }, "geometry": { "type": "Point", "coordinates": [ 12.397934702200001, 51.347282314700003 ] } },
{ "type": "Feature", "properties": { "id": "3318", "lat": 51.320540234100001, "lng": 12.2767782575, "artdtsch": "Zerr-Eiche", "artbot": "Quercus cerris", "gattungdeutsch": "Quercus", "strname": "Kiewer Straße", "pflanzjahr": 2021, "standalter": 3, "bezirk": "Grünau-Nord", "standortnr": "85429", "wassermenge": 150, "wassersumme": 650, "anzahlg": 6 }, "geometry": { "type": "Point", "coordinates": [ 12.2767782575, 51.320540234100001 ] } },
{ "type": "Feature", "properties": { "id": "90476", "lat": 51.323973071200001, "lng": 12.2921669647, "artdtsch": "Brabanter Silber-Linde", "artbot": "Tilia tomentosa 'Brabant'", "gattungdeutsch": "Tilia", "strname": "WG Grünau WK 3-Lützner Straße/Schönauer Straße", "pflanzjahr": 2022, "standalter": 2, "bezirk": "Grünau-Ost", "standortnr": "85289", "wassermenge": 150, "wassersumme": 150, "anzahlg": 1 }, "geometry": { "type": "Point", "coordinates": [ 12.2921669647, 51.323973071200001 ] } },
{ "type": "Feature", "properties": { "id": "id-30648", "lat": 51.3417587486, "lng": 12.4058824047, "artdtsch": "Amberbaum", "artbot": "Liquidambar styraciflua", "gattungdeutsch": "Liquidambar", "strname": "Hermann-Liebmann-Straße", "pflanzjahr": 2011, "standalter": 13, "bezirk": "Neustadt-Neuschönefeld", "standortnr": "9046", "wassermenge": 40, "wassersumme": 640, "anzahlg": 16 }, "geometry": { "type": "Point", "coordinates": [ 12.4058824047, 51.3417587486 ] } },
{ "type": "Feature", "properties": { "id": "id-36063", "lat": 51.365640592699997, "lng": 12.425407827600001, "artdtsch": "Purpur-Erle", "artbot": "Alnus x spaethii", "gattungdeutsch": "Alnus", "strname": "Stöhrerstraße", "pflanzjahr": 2017, "standalter": 7, "bezirk": "Schönefeld-Ost", "standortnr": "12415", "wassermenge": 15, "wassersumme": 60, "anzahlg": 4 }, "geometry": { "type": "Point", "coordinates": [ 12.425407827600001, 51.365640592699997 ] } },
{ "type": "Feature", "properties": { "id": "2322", "lat": 51.3438198622, "lng": 12.3188763893, "artdtsch": "Säulen-Tulpenbaum", "artbot": "Liriodendron tulipifera 'Fastigiatum'", "gattungdeutsch": "Liriodendron", "strname": "Pufendorfstraße", "pflanzjahr": 2021, "standalter": 3, "bezirk": "Leutzsch", "standortnr": "77003", "wassermenge": 30, "wassersumme": 60, "anzahlg": 2 }, "geometry": { "type": "Point", "coordinates": [ 12.3188763893, 51.3438198622 ] } },
{ "type": "Feature", "properties": { "id": "15801", "lat": 51.320418238400002, "lng": 12.284004249400001, "artdtsch": "Stadt-Linde", "artbot": "Tilia cordata 'Greenspire'", "gattungdeutsch": "Tilia", "strname": "Heilbronner Straße", "pflanzjahr": 2023, "standalter": 1, "bezirk": "Grünau-Mitte", "standortnr": "125965", "wassermenge": 150, "wassersumme": 350, "anzahlg": 3 }, "geometry": { "type": "Point", "coordinates": [ 12.284004249400001, 51.320418238400002 ] } },
{ "type": "Feature", "properties": { "id": "15835", "lat": 51.319686084200001, "lng": 12.2858322718, "artdtsch": "Stiel-Eiche", "artbot": "Quercus robur", "gattungdeutsch": "Quercus", "strname": "Ulmer Straße", "pflanzjahr": 2023, "standalter": 1, "bezirk": "Grünau-Mitte", "standortnr": "126138", "wassermenge": 100, "wassersumme": 300, "anzahlg": 3 }, "geometry": { "type": "Point", "coordinates": [ 12.2858322718, 51.319686084200001 ] } },
{ "type": "Feature", "properties": { "id": "id-13009", "lat": 51.3463741889, "lng": 12.316973341600001, "artdtsch": "Amberbaum 'Paarl'", "artbot": "Liquidambar styraciflua 'Paarl'", "gattungdeutsch": "Liquidambar", "strname": "Landwaisenhausstraße", "pflanzjahr": 2019, "standalter": 5, "bezirk": "Leutzsch", "standortnr": "75403", "wassermenge": 30, "wassersumme": 127, "anzahlg": 5 }, "geometry": { "type": "Point", "coordinates": [ 12.316973341600001, 51.3463741889 ] } },
{ "type": "Feature", "properties": { "id": "id-60267", "lat": 51.328265491899998, "lng": 12.2804898865, "artdtsch": "Stiel-Eiche", "artbot": "Quercus robur", "gattungdeutsch": "Quercus", "strname": "Lyoner Straße", "pflanzjahr": 2019, "standalter": 5, "bezirk": "Schönau", "standortnr": "76357", "wassermenge": 100, "wassersumme": 300, "anzahlg": 3 }, "geometry": { "type": "Point", "coordinates": [ 12.2804898865, 51.328265491899998 ] } },
{ "type": "Feature", "properties": { "id": "97039", "lat": 51.325653712399998, "lng": 12.289491230699999, "artdtsch": "Stiel-Eiche", "artbot": "Quercus robur", "gattungdeutsch": "Quercus", "strname": "WG Grünau WK 5.1-Garskestraße/Lützner Straße/Schönauer Straße", "pflanzjahr": 2020, "standalter": 4, "bezirk": "Schönau", "standortnr": "78015", "wassermenge": 100, "wassersumme": 100, "anzahlg": 1 }, "geometry": { "type": "Point", "coordinates": [ 12.289491230699999, 51.325653712399998 ] } },
{ "type": "Feature", "properties": { "id": "17184", "lat": 51.2848, "lng": 12.3365167, "artdtsch": "Gemeine Esche", "artbot": "Fraxinus excelsior", "gattungdeutsch": "Fraxinus", "strname": "Lauerscher Weg", "pflanzjahr": 2024, "standalter": 0, "bezirk": "Großzschocher", "standortnr": "osm_cossi_2", "wassermenge": 80, "wassersumme": 1265, "anzahlg": 16 }, "geometry": { "type": "Point", "coordinates": [ 12.3365167, 51.2848 ] } },
{ "type": "Feature", "properties": { "id": "id-59946", "lat": 51.332894383099998, "lng": 12.353509864399999, "artdtsch": "Säulen-Eiche", "artbot": "Quercus robur 'Fastigiata'", "gattungdeutsch": "Quercus", "strname": "Sebastian-Bach-Straße", "pflanzjahr": 2018, "standalter": 6, "bezirk": "Zentrum-West", "standortnr": "75762", "wassermenge": 10, "wassersumme": 10, "anzahlg": 1 }, "geometry": { "type": "Point", "coordinates": [ 12.353509864399999, 51.332894383099998 ] } },
{ "type": "Feature", "properties": { "id": "id-59878", "lat": 51.3341877075, "lng": 12.355726410200001, "artdtsch": "Säulen-Eiche", "artbot": "Quercus robur 'Fastigiata'", "gattungdeutsch": "Quercus", "strname": "Sebastian-Bach-Straße", "pflanzjahr": 2018, "standalter": 6, "bezirk": "Zentrum-West", "standortnr": "75760", "wassermenge": 30, "wassersumme": 130, "anzahlg": 5 }, "geometry": { "type": "Point", "coordinates": [ 12.355726410200001, 51.3341877075 ] } },
{ "type": "Feature", "properties": { "id": "id-19548", "lat": 51.3103007729, "lng": 12.378189965300001, "artdtsch": "Stadt-Linde", "artbot": "Tilia cordata 'Greenspire'", "gattungdeutsch": "Tilia", "strname": "Arno-Nitzsche-Straße", "pflanzjahr": 2008, "standalter": 16, "bezirk": "Connewitz", "standortnr": "31823", "wassermenge": 1, "wassersumme": 1, "anzahlg": 1 },